,accuracy,formatted_address,google_place_id,input_string,latitude,longitude,number_of_results,postcode,status,type
0,ROOFTOP,"215 Rue de la Commune O, Montréal, QC H2Y 3W8, Canada",ChIJRdS7aFgayUwRSmkpih97T78,"215 rue de la Commune Ouest  (MTL), Montreal,Canada",45.5019987,-73.553966,1,H2Y 3W8,OK,street_address
1,ROOFTOP,"1015 Rue St-Alexandre, Montréal, QC H2Z 1N9, Canada",ChIJo70z-1oayUwRrdB5G3G_8Z8,"1015 rue Saint-Alexandre  (MTL), Montreal,Canada",45.5030523,-73.562862,1,H2Z 1N9,OK,street_address
2,ROOFTOP,"221 Rue de la Commune O, Montréal, QC H2Y 2C9, Canada",ChIJuyKCaFgayUwRf8vYQD_y1Yo,"221 rue de la Commune Ouest  (MTL), Montreal,Canada",45.5018286,-73.5539479,1,H2Y 2C9,OK,street_address
3,ROOFTOP,"321 Rue de la Commune O, Montréal, QC H2Y 2E1, Canada",ChIJdRtkJ_YayUwRGbxEcccJjVY,"321 rue de la Commune Ouest  (MTL), Montreal,Canada",45.5006979,-73.5536529,1,H2Y 2E1,OK,street_address
4,ROOFTOP,"1101 Rue St-Alexandre, Montréal, QC H2Z 1P8, Canada",ChIJJUFaNUUayUwRnkW4qJ5fmwU,"1101 rue Saint-Alexandre  (MTL), Montreal,Canada",45.5041243,-73.5648195,1,H2Z 1P8,OK,street_address
5,ROOFTOP,"357 Rue de la Commune O, Montréal, QC H2Y 2E2, Canada",ChIJB4f5GfYayUwRN_wI_Drj6j0,"357 rue de la Commune Ouest  (MTL), Montreal,Canada",45.49970649999999,-73.5532167,1,H2Y 2E2,OK,street_address
6,ROOFTOP,"1407 Rue St-Alexandre, Montréal, QC J3V 6H1, Canada",ChIJU8g6hkUayUwR3-nEe0aVH1s,"1407 rue Saint-Alexandre  (MTL), Montreal,Canada",45.50561769999999,-73.5679875,1,J3V 6H1,OK,premise
7,ROOFTOP,"1425 Rue St-Alexandre, Montréal, QC H3A 2G6, Canada",ChIJLTmNiEUayUwRE1YRRlw7ric,"1425 rue Saint-Alexandre  (MTL), Montreal,Canada",45.5056642,-73.5681384,1,H3A 2G6,OK,street_address
8,ROOFTOP,"131 Rue du Port, Montréal, QC H2Y 2N9, Canada",ChIJe8x4XVgayUwRA9JQI9u5sKE,"131 rue du Port  (MTL), Montreal,Canada",45.501861,-73.554396,1,H2Y 2N9,OK,street_address
9,ROOFTOP,"400 Rue Dowd, Montréal, QC H2Z 1B7, Canada",ChIJ4Uz3t1oayUwRY01xt_-CnRo,"400 rue Dowd  (MTL), Montreal,Canada",45.50406599999999,-73.563982,1,H2Z 1B7,OK,street_address
10,ROOFTOP,"204 Place d'Youville, Montréal, QC H2Y 2B4, Canada",ChIJL0LlQ1gayUwRsIbV7i7tztE,"204 place D'Youville  (MTL), Montreal,Canada",45.50228629999999,-73.5544783,1,H2Y 2B4,OK,street_address
11,ROOFTOP,"371 Rue Dowd, Montréal, QC H2Z 1B6, Canada",ChIJv_0KsVoayUwRS39IsQaP4n4,"371 rue Dowd  (MTL), Montreal,Canada",45.504475,-73.56401799999999,1,H2Z 1B6,OK,street_address
12,ROOFTOP,"224 Place d'Youville, Montréal, QC H2Y 2B4, Canada",ChIJaTOzXFgayUwRbUgW4TCZYlo,"224 place D'Youville  (MTL), Montreal,Canada",45.5020379,-73.5546131,1,H2Y 2B4,OK,street_address
13,ROOFTOP,"3421 Rue Durocher, Montréal, QC H2X 2B4, Canada",ChIJ8buYgEgayUwRABG_-9ww7dA,"3421 rue Durocher  (MTL), Montreal,Canada",45.5074511,-73.5727216,1,H2X 2B4,OK,street_address
14,ROOFTOP,"3433 Rue Durocher, Montréal, QC H2X 2C8, Canada",ChIJCw4kYUgayUwRPilm0adMgeM,"3433 rue Durocher  (MTL), Montreal,Canada",45.5076145,-73.573094,1,H2X 2C8,OK,street_address
15,ROOFTOP,"203 Place d'Youville, Montréal, QC H2Y 2B3, Canada",ChIJdRFST1gayUwRRe6604IyhVc,"203 place D'Youville  (MTL), Montreal,Canada",45.50236140000001,-73.5550116,1,H2Y 2B3,OK,premise
16,ROOFTOP,"3455 Durocher, Montréal, QC H2X 2C9, Canada",ChIJcZk-Z0gayUwRshLmhtq8dbQ,"3455 rue Durocher  (MTL), Montreal,Canada",45.50770139999999,-73.57327529999999,1,H2X 2C9,OK,premise
17,ROOFTOP,"203 Place d'Youville, Montréal, QC H2Y 2B3, Canada",ChIJdRFST1gayUwRRe6604IyhVc,"203 place D'Youville  (MTL), Montreal,Canada",45.50236140000001,-73.5550116,1,H2Y 2B3,OK,premise
18,ROOFTOP,"203 Place d'Youville, Montréal, QC H2Y 2B3, Canada",ChIJdRFST1gayUwRRe6604IyhVc,"203 place D'Youville  (MTL), Montreal,Canada",45.50236140000001,-73.5550116,1,H2Y 2B3,OK,premise
19,ROOFTOP,"3475 Rue Durocher, Montréal, QC H2X 2C6, Canada",ChIJ58MRP0gayUwR2NGjzg_MDDw,"3475 rue Durocher  (MTL), Montreal,Canada",45.5081768,-73.5741929,1,H2X 2C6,OK,street_address
20,ROOFTOP,"206 Rue Saint-Paul O, Montréal, QC H2Y 1Z9, Canada",ChIJPVXbS1gayUwR5l07E9Zhr54,"206 rue Saint-Paul Ouest  (MTL), Montreal,Canada",45.502534,-73.55528,1,H2Y 1Z9,OK,street_address
21,ROOFTOP,"3489 Rue Durocher, Montréal, QC H2X 2C6, Canada",ChIJ-7-bPkgayUwR0UL2MsfavaE,"3489 rue Durocher  (MTL), Montreal,Canada",45.508194,-73.5744699,1,H2X 2C6,OK,street_address
22,ROOFTOP,"206 Rue Saint-Paul O, Montréal, QC H2Y 1Z9, Canada",ChIJPVXbS1gayUwR5l07E9Zhr54,"206 rue Saint-Paul Ouest  (MTL), Montreal,Canada",45.502534,-73.55528,1,H2Y 1Z9,OK,street_address
23,ROOFTOP,"3491 Rue Durocher, Montréal, QC H2X 2C6, Canada",ChIJQ9ymPkgayUwRBDhLVvckNHA,"3491 rue Durocher  (MTL), Montreal,Canada",45.5082392,-73.57446089999999,2,H2X 2C6,OK,street_address
24,ROOFTOP,"3487 Rue Durocher, Montréal, QC H2X 2C6, Canada",ChIJL8fzPkgayUwRiJ2i3dCBRBI,"3487 rue Durocher  (MTL), Montreal,Canada",45.5081567,-73.5743998,1,H2X 2C6,OK,street_address
25,ROOFTOP,"3491 Rue Durocher, Montréal, QC H2X 2C6, Canada",ChIJQ9ymPkgayUwRBDhLVvckNHA,"3491 rue Durocher  (MTL), Montreal,Canada",45.5082392,-73.57446089999999,2,H2X 2C6,OK,street_address
26,ROOFTOP,"203 Place d'Youville, Montréal, QC H2Y 2B3, Canada",ChIJdRFST1gayUwRRe6604IyhVc,"203 place D'Youville  (MTL), Montreal,Canada",45.50236140000001,-73.5550116,1,H2Y 2B3,OK,premise
27,ROOFTOP,"3487 Rue Durocher, Montréal, QC H2X 2C6, Canada",ChIJL8fzPkgayUwRiJ2i3dCBRBI,"3487 rue Durocher  (MTL), Montreal,Canada",45.5081567,-73.5743998,1,H2X 2C6,OK,street_address
28,RANGE_INTERPOLATED,"356 Rue Saint-François-Xavier, Montréal, QC H2Y, Canada",EjUzNTYgUnVlIFNhaW50LUZyYW7Dp29pcy1YYXZpZXIsIE1vbnRyw6lhbCwgUUMsIENhbmFkYSIbEhkKFAoSCUGu9klYGslMEZndc_nOtoogEOQC,"356 rue Saint-François-Xavier  (MTL), Montreal,Canada",45.50259579999999,-73.5551162,1,H2Y,OK,street_address
29,ROOFTOP,"3491 Rue Durocher, Montréal, QC H2X 2C6, Canada",ChIJQ9ymPkgayUwRBDhLVvckNHA,"3491 rue Durocher  (MTL), Montreal,Canada",45.5082392,-73.57446089999999,2,H2X 2C6,OK,street_address
30,ROOFTOP,"216 Rue Saint-Paul O, Montréal, QC H2Y 1Z9, Canada",ChIJ960cTFgayUwRi0vgTyC_dN4,"216 rue Saint-Paul Ouest  (MTL), Montreal,Canada",45.502407,-73.5553259,1,H2Y 1Z9,OK,street_address
31,ROOFTOP,"285 Place d'Youville, Montréal, QC H2Y 2A4, Canada",ChIJ6fZ3V1gayUwRF5d994NEU-I,"285 place D'Youville  (MTL), Montreal,Canada",45.5016974,-73.5553566,1,H2Y 2A4,OK,street_address
32,ROOFTOP,"3515 Rue Durocher, Montréal, QC H2X 2E7, Canada",ChIJnxCWJUgayUwRcukcwC1QD8M,"3515 rue Durocher  (MTL), Montreal,Canada",45.508596,-73.574968,1,H2X 2E7,OK,street_address
33,ROOFTOP,"285 Place d'Youville, Montréal, QC H2Y 2A4, Canada",ChIJ6fZ3V1gayUwRF5d994NEU-I,"285 place D'Youville  (MTL), Montreal,Canada",45.5016974,-73.5553566,1,H2Y 2A4,OK,street_address
34,ROOFTOP,"3535 Durocher, Montréal, QC H2X 2E7, Canada",ChIJXeQE2DcayUwRkBk9QnIUAsc,"3535 rue Durocher  (MTL), Montreal,Canada",45.5087196,-73.5754925,1,H2X 2E7,OK,street_address
35,ROOFTOP,"285 Place d'Youville, Montréal, QC H2Y 2A4, Canada",ChIJ6fZ3V1gayUwRF5d994NEU-I,"285 place D'Youville  (MTL), Montreal,Canada",45.5016974,-73.5553566,1,H2Y 2A4,OK,street_address
36,ROOFTOP,"3547 Rue Durocher, Montréal, QC H2X 2E7, Canada",ChIJVQhP1zcayUwRoSxL_mv60FA,"3547 rue Durocher  (MTL), Montreal,Canada",45.5088334,-73.5757575,1,H2X 2E7,OK,street_address
37,ROOFTOP,"285 Place d'Youville, Montréal, QC H2Y 2A4, Canada",ChIJ6fZ3V1gayUwRF5d994NEU-I,"285 place D'Youville  (MTL), Montreal,Canada",45.5016974,-73.5553566,1,H2Y 2A4,OK,street_address
38,ROOFTOP,"3553 Rue Durocher, Montréal, QC H2X 2E7, Canada",ChIJ1fhK1zcayUwRrbRYHjopDHA,"3553 rue Durocher  (MTL), Montreal,Canada",45.5088556,-73.5757754,1,H2X 2E7,OK,street_address
39,ROOFTOP,"3561 Rue Durocher, Montréal, QC H2X 2E7, Canada",ChIJ8wZY0DcayUwRCRLW51wkdAw,"3561 rue Durocher  (MTL), Montreal,Canada",45.5089266,-73.5759563,1,H2X 2E7,OK,street_address
40,ROOFTOP,"285 Place d'Youville, Montréal, QC H2Y 2A4, Canada",ChIJ6fZ3V1gayUwRF5d994NEU-I,"285 place D'Youville  (MTL), Montreal,Canada",45.5016974,-73.5553566,1,H2Y 2A4,OK,street_address
41,ROOFTOP,"285 Place d'Youville, Montréal, QC H2Y 2A4, Canada",ChIJ6fZ3V1gayUwRF5d994NEU-I,"285 place D'Youville  (MTL), Montreal,Canada",45.5016974,-73.5553566,1,H2Y 2A4,OK,street_address
42,ROOFTOP,"3575 Rue Durocher, Montréal, QC H2X 2E7, Canada",ChIJpRohzjcayUwR7pZ_UPcYAcI,"3575 rue Durocher  (MTL), Montreal,Canada",45.5090519,-73.5761069,1,H2X 2E7,OK,street_address
43,ROOFTOP,"3575 Rue Durocher, Montréal, QC H2X 2E7, Canada",ChIJpRohzjcayUwR7pZ_UPcYAcI,"3575 rue Durocher  (MTL), Montreal,Canada",45.5090519,-73.5761069,1,H2X 2E7,OK,street_address
44,ROOFTOP,"3583 Rue Durocher, Montréal, QC H2X 2E7, Canada",ChIJNx6HzjcayUwRYUfyn4WuE3o,"3583 rue Durocher  (MTL), Montreal,Canada",45.509138,-73.576262,1,H2X 2E7,OK,street_address
45,ROOFTOP,"3583 Rue Durocher, Montréal, QC H2X 2E7, Canada",ChIJNx6HzjcayUwRYUfyn4WuE3o,"3583 rue Durocher  (MTL), Montreal,Canada",45.509138,-73.576262,1,H2X 2E7,OK,street_address
46,ROOFTOP,"3583 Rue Durocher, Montréal, QC H2X 2E7, Canada",ChIJNx6HzjcayUwRYUfyn4WuE3o,"3583 rue Durocher  (MTL), Montreal,Canada",45.509138,-73.576262,1,H2X 2E7,OK,street_address
47,ROOFTOP,"3615 Rue Durocher, Montréal, QC H2X 2E9, Canada",ChIJLVA5szcayUwREcTHZhAD34c,"3615 rue Durocher  (MTL), Montreal,Canada",45.5095457,-73.57718349999999,1,H2X 2E9,OK,street_address
48,ROOFTOP,"3619 Durocher, Montréal, QC H2X 2E9, Canada",ChIJ_Z_esjcayUwRF3m5u-3SEuY,"3619 rue Durocher  (MTL), Montreal,Canada",45.5095542,-73.5772862,1,H2X 2E9,OK,street_address
49,ROOFTOP,"3621 Rue Durocher, Montréal, QC H2X 2E9, Canada",ChIJ13bPsjcayUwRVHowHgMDwUk,"3621 rue Durocher  (MTL), Montreal,Canada",45.5095843,-73.5773093,1,H2X 2E9,OK,street_address
50,ROOFTOP,"3625 Durocher, Montréal, QC H2X 2E9, Canada",ChIJ6yGusjcayUwRBXUXnLCu-7A,"3625 rue Durocher  (MTL), Montreal,Canada",45.5096067,-73.5773873,1,H2X 2E9,OK,street_address
51,ROOFTOP,"3635 Durocher, Montréal, QC H2X 2E9, Canada",ChIJ4dcpUzYayUwRENWcVv7MaMk,"3635 rue Durocher  (MTL), Montreal,Canada",45.5096882,-73.5775999,1,H2X 2E9,OK,street_address
52,ROOFTOP,"3647 Durocher, Montréal, QC H2X 2E9, Canada",ChIJm6-AVDYayUwRcsr6Q270UAc,"3647 rue Durocher  (MTL), Montreal,Canada",45.5098896,-73.57771939999999,1,H2X 2E9,OK,street_address
53,ROOFTOP,"3649 Durocher, Montréal, QC H2X 2E9, Canada",ChIJoegU-TYayUwRGP7Mob_whOk,"3649 rue Durocher  (MTL), Montreal,Canada",45.5099714,-73.5779039,1,H2X 2E9,OK,premise
54,ROOFTOP,"3651 Rue Durocher, Montréal, QC H2X 1T3, Canada",ChIJrxdRqzcayUwRr1X_OprwOTI,"3651 rue Durocher  (MTL), Montreal,Canada",45.5098156,-73.57815269999999,1,H2X 1T3,OK,street_address
55,ROOFTOP,"285 Place d'Youville, Montréal, QC H2Y 2A4, Canada",ChIJ6fZ3V1gayUwRF5d994NEU-I,"285 place D'Youville  (MTL), Montreal,Canada",45.5016974,-73.5553566,1,H2Y 2A4,OK,street_address
56,ROOFTOP,"296 Rue Saint-Paul O, Montréal, QC H2Y 2B6, Canada",ChIJJ5-Q-FgayUwR1FsWwgNB-Y0,"296 rue Saint-Paul Ouest  (MTL), Montreal,Canada",45.5015495,-73.5556232,1,H2Y 2B6,OK,premise
57,ROOFTOP,"320 Rue Saint-Paul O, Montréal, QC H2Y 2A3, Canada",ChIJG_YW_FgayUwRlQbDtrBky_E,"320 rue Saint-Paul Ouest  (MTL), Montreal,Canada",45.5012927,-73.5560523,1,H2Y 2A3,OK,street_address
58,ROOFTOP,"350 Rue Saint-Paul O, Montréal, QC H2Y 2A6, Canada",ChIJ__-P5FgayUwRgRNiC2C24C0,"350 rue Saint-Paul Ouest  (MTL), Montreal,Canada",45.5011558,-73.5562125,1,H2Y 2A6,OK,street_address
59,ROOFTOP,"378 Rue Saint-Paul O, Montréal, QC H2Y 2A6, Canada",ChIJS8p54VgayUwRWS13T6MQUOE,"378 rue Saint-Paul Ouest  (MTL), Montreal,Canada",45.500766,-73.556467,1,H2Y 2A6,OK,street_address
60,ROOFTOP,"385 Rue Saint-Paul O, Montréal, QC H2Y 2A6, Canada",ChIJt4_g4VgayUwRxCr3CMCcFxE,"385 rue Saint-Paul Ouest  (MTL), Montreal,Canada",45.5007806,-73.5567358,1,H2Y 2A6,OK,street_address
61,ROOFTOP,"387 Rue Saint-Paul O, Montréal, QC H2Y 2A7, Canada",ChIJSeJOHlkayUwRxS4Ah1AD65w,"387 rue Saint-Paul Ouest  (MTL), Montreal,Canada",45.50073279999999,-73.5568497,1,H2Y 2A7,OK,street_address
62,ROOFTOP,"387 Rue Saint-Paul O, Montréal, QC H2Y 2A7, Canada",ChIJSeJOHlkayUwRxS4Ah1AD65w,"387 rue Saint-Paul Ouest  (MTL), Montreal,Canada",45.50073279999999,-73.5568497,1,H2Y 2A7,OK,street_address
63,ROOFTOP,"389 Rue Saint-Paul O, Montréal, QC H2Y 2A7, Canada",ChIJU7jaH1kayUwRaWEBW2qwQjQ,"389 rue Saint-Paul Ouest  (MTL), Montreal,Canada",45.50065619999999,-73.55680389999999,1,H2Y 2A7,OK,street_address
64,ROOFTOP,"389 Rue Saint-Paul O, Montréal, QC H2Y 2A7, Canada",ChIJU7jaH1kayUwRaWEBW2qwQjQ,"389 rue Saint-Paul Ouest  (MTL), Montreal,Canada",45.50065619999999,-73.55680389999999,1,H2Y 2A7,OK,street_address
65,ROOFTOP,"389 Rue Saint-Paul O, Montréal, QC H2Y 2A7, Canada",ChIJU7jaH1kayUwRaWEBW2qwQjQ,"389 rue Saint-Paul Ouest  (MTL), Montreal,Canada",45.50065619999999,-73.55680389999999,1,H2Y 2A7,OK,street_address
66,ROOFTOP,"389 Rue Saint-Paul O, Montréal, QC H2Y 2A7, Canada",ChIJU7jaH1kayUwRaWEBW2qwQjQ,"389 rue Saint-Paul Ouest  (MTL), Montreal,Canada",45.50065619999999,-73.55680389999999,1,H2Y 2A7,OK,street_address
67,ROOFTOP,"389 Rue Saint-Paul O, Montréal, QC H2Y 2A7, Canada",ChIJU7jaH1kayUwRaWEBW2qwQjQ,"389 rue Saint-Paul Ouest  (MTL), Montreal,Canada",45.50065619999999,-73.55680389999999,1,H2Y 2A7,OK,street_address
68,ROOFTOP,"389 Rue Saint-Paul O, Montréal, QC H2Y 2A7, Canada",ChIJU7jaH1kayUwRaWEBW2qwQjQ,"389 rue Saint-Paul Ouest  (MTL), Montreal,Canada",45.50065619999999,-73.55680389999999,1,H2Y 2A7,OK,street_address
69,ROOFTOP,"389 Rue Saint-Paul O, Montréal, QC H2Y 2A7, Canada",ChIJU7jaH1kayUwRaWEBW2qwQjQ,"389 rue Saint-Paul Ouest  (MTL), Montreal,Canada",45.50065619999999,-73.55680389999999,1,H2Y 2A7,OK,street_address
70,ROOFTOP,"389 Rue Saint-Paul O, Montréal, QC H2Y 2A7, Canada",ChIJU7jaH1kayUwRaWEBW2qwQjQ,"389 rue Saint-Paul Ouest  (MTL), Montreal,Canada",45.50065619999999,-73.55680389999999,1,H2Y 2A7,OK,street_address
71,ROOFTOP,"389 Rue Saint-Paul O, Montréal, QC H2Y 2A7, Canada",ChIJU7jaH1kayUwRaWEBW2qwQjQ,"389 rue Saint-Paul Ouest  (MTL), Montreal,Canada",45.50065619999999,-73.55680389999999,1,H2Y 2A7,OK,street_address
72,ROOFTOP,"389 Rue Saint-Paul O, Montréal, QC H2Y 2A7, Canada",ChIJU7jaH1kayUwRaWEBW2qwQjQ,"389 rue Saint-Paul Ouest  (MTL), Montreal,Canada",45.50065619999999,-73.55680389999999,1,H2Y 2A7,OK,street_address
73,ROOFTOP,"389 Rue Saint-Paul O, Montréal, QC H2Y 2A7, Canada",ChIJU7jaH1kayUwRaWEBW2qwQjQ,"389 rue Saint-Paul Ouest  (MTL), Montreal,Canada",45.50065619999999,-73.55680389999999,1,H2Y 2A7,OK,street_address
74,ROOFTOP,"389 Rue Saint-Paul O, Montréal, QC H2Y 2A7, Canada",ChIJU7jaH1kayUwRaWEBW2qwQjQ,"389 rue Saint-Paul Ouest  (MTL), Montreal,Canada",45.50065619999999,-73.55680389999999,1,H2Y 2A7,OK,street_address
75,ROOFTOP,"389 Rue Saint-Paul O, Montréal, QC H2Y 2A7, Canada",ChIJU7jaH1kayUwRaWEBW2qwQjQ,"389 rue Saint-Paul Ouest  (MTL), Montreal,Canada",45.50065619999999,-73.55680389999999,1,H2Y 2A7,OK,street_address
76,ROOFTOP,"389 Rue Saint-Paul O, Montréal, QC H2Y 2A7, Canada",ChIJU7jaH1kayUwRaWEBW2qwQjQ,"389 rue Saint-Paul Ouest  (MTL), Montreal,Canada",45.50065619999999,-73.55680389999999,1,H2Y 2A7,OK,street_address
77,ROOFTOP,"389 Rue Saint-Paul O, Montréal, QC H2Y 2A7, Canada",ChIJU7jaH1kayUwRaWEBW2qwQjQ,"389 rue Saint-Paul Ouest  (MTL), Montreal,Canada",45.50065619999999,-73.55680389999999,1,H2Y 2A7,OK,street_address
78,ROOFTOP,"389 Rue Saint-Paul O, Montréal, QC H2Y 2A7, Canada",ChIJU7jaH1kayUwRaWEBW2qwQjQ,"389 rue Saint-Paul Ouest  (MTL), Montreal,Canada",45.50065619999999,-73.55680389999999,1,H2Y 2A7,OK,street_address
79,ROOFTOP,"389 Rue Saint-Paul O, Montréal, QC H2Y 2A7, Canada",ChIJU7jaH1kayUwRaWEBW2qwQjQ,"389 rue Saint-Paul Ouest  (MTL), Montreal,Canada",45.50065619999999,-73.55680389999999,1,H2Y 2A7,OK,street_address
80,ROOFTOP,"389 Rue Saint-Paul O, Montréal, QC H2Y 2A7, Canada",ChIJU7jaH1kayUwRaWEBW2qwQjQ,"389 rue Saint-Paul Ouest  (MTL), Montreal,Canada",45.50065619999999,-73.55680389999999,1,H2Y 2A7,OK,street_address
81,ROOFTOP,"373 Rue Saint-Paul O, Montréal, QC H2Y 2A7, Canada",ChIJReSpHVkayUwRd5k1IpbfsKc,"373 rue Saint-Paul Ouest  (MTL), Montreal,Canada",45.5009808,-73.55673399999999,1,H2Y 2A7,OK,premise
82,ROOFTOP,"373 Rue Saint-Paul O, Montréal, QC H2Y 2A7, Canada",ChIJReSpHVkayUwRd5k1IpbfsKc,"373 rue Saint-Paul Ouest  (MTL), Montreal,Canada",45.5009808,-73.55673399999999,1,H2Y 2A7,OK,premise
83,ROOFTOP,"373 Rue Saint-Paul O, Montréal, QC H2Y 2A7, Canada",ChIJReSpHVkayUwRd5k1IpbfsKc,"373 rue Saint-Paul Ouest  (MTL), Montreal,Canada",45.5009808,-73.55673399999999,1,H2Y 2A7,OK,premise
84,ROOFTOP,"351 Rue Saint-Paul O, Montréal, QC H2Y 2A7, Canada",ChIJM6By_VgayUwRpByYxWHRcKA,"351 rue Saint-Paul Ouest  (MTL), Montreal,Canada",45.5012169,-73.5564768,1,H2Y 2A7,OK,street_address
85,ROOFTOP,"235 Rue Saint-Paul O, Montréal, QC H2Y 2A2, Canada",ChIJb2Y7TVgayUwR6-hwF8FYZbk,"235 rue Saint-Paul Ouest  (MTL), Montreal,Canada",45.50230699999999,-73.555705,1,H2Y 2A2,OK,street_address
86,RANGE_INTERPOLATED,"225 Rue Saint-Paul O, Montréal, QC H2Y 1Z9, Canada",EjMyMjUgUnVlIFNhaW50LVBhdWwgTywgTW9udHLDqWFsLCBRQyBIMlkgMVo5LCBDYW5hZGEiGxIZChQKEgm7IcBNWBrJTBGi84lf63ye3RDhAQ,"225 rue Saint-Paul Ouest  (MTL), Montreal,Canada",45.50240429999999,-73.5556195,1,H2Y 1Z9,OK,street_address
87,ROOFTOP,"231 Rue Saint-Paul O, Montréal, QC H2Y 2A2, Canada",ChIJ40kiTVgayUwRSSDPoYMpKys,"231 rue Saint-Paul Ouest  (MTL), Montreal,Canada",45.5023229,-73.555678,1,H2Y 2A2,OK,street_address
88,ROOFTOP,"221 Rue Saint-Paul O, Montréal, QC H2Y 2A2, Canada",ChIJeYx7TFgayUwRze6tPxQObjs,"221 rue Saint-Paul Ouest  (MTL), Montreal,Canada",45.502426,-73.555561,1,H2Y 2A2,OK,street_address
89,ROOFTOP,"215 Rue Saint-Paul O, Montréal, QC H2Y 2A1, Canada",ChIJcWdyS1gayUwRAZe2rWsqgV4,"215 rue Saint-Paul Ouest  (MTL), Montreal,Canada",45.50253360000001,-73.55548370000001,1,H2Y 2A1,OK,street_address
90,ROOFTOP,"1030 Rue de Bleury, Montréal, QC H2Z 1M9, Canada",ChIJl3Grk1oayUwRI1S-NmSjCC4,"1030 rue De Bleury  (MTL), Montreal,Canada",45.503981,-73.5625511,1,H2Z 1M9,OK,street_address
91,ROOFTOP,"1076 Rue de Bleury, Montréal, QC H2Z 1N1, Canada",ChIJhQ0su1oayUwRLTm138Xe-3g,"1076 rue De Bleury  (MTL), Montreal,Canada",45.5045353,-73.5634405,1,H2Z 1N1,OK,street_address
92,ROOFTOP,"209 Rue Saint-Paul O, Montréal, QC H2Y 1Z9, Canada",ChIJ7-tmSlgayUwRobrSwCfEHaM,"209 rue Saint-Paul Ouest  (MTL), Montreal,Canada",45.5026251,-73.55545959999999,1,H2Y 1Z9,OK,street_address
93,ROOFTOP,"205 Rue Saint-Paul O, Montréal, QC H2Y 2A1, Canada",ChIJ_Wn0SlgayUwRc1cXaCDTYms,"205 rue Saint-Paul Ouest  (MTL), Montreal,Canada",45.5026771,-73.55548379999999,1,H2Y 2A1,OK,street_address
94,ROOFTOP,"201 Rue Saint-Paul O, Montréal, QC H2Y 1Z9, Canada",ChIJO5WlSlgayUwRcSes-7CV9wQ,"201 rue Saint-Paul Ouest  (MTL), Montreal,Canada",45.5027537,-73.5554909,1,H2Y 1Z9,OK,premise
95,ROOFTOP,"356 Rue le Moyne, Montréal, QC H2Y 1Y3, Canada",ChIJjxivBVkayUwRaC0SOaATVuU,"356 rue Le Moyne  (MTL), Montreal,Canada",45.5013574,-73.5570113,1,H2Y 1Y3,OK,street_address
96,ROOFTOP,"366 Rue le Moyne, Montréal, QC H2Y 1Y3, Canada",ChIJnw60BFkayUwRvMqgoeO7HH0,"366 rue Le Moyne  (MTL), Montreal,Canada",45.5011883,-73.5569835,1,H2Y 1Y3,OK,premise
97,ROOFTOP,"1250 Rue de Bleury, Montréal, QC H3B 2W4, Canada",ChIJTy28g08ayUwR6Ab0PBCoKH8,"1250 rue De Bleury  (MTL), Montreal,Canada",45.5060324,-73.56668300000001,1,H3B 2W4,OK,street_address
98,ROOFTOP,"1420 Rue de Bleury, Montréal, QC H3A 2J1, Canada",ChIJ981zb08ayUwR0oMxzpqnWm0,"1420 rue De Bleury  (MTL), Montreal,Canada",45.506464,-73.567814,1,H3A 2J1,OK,street_address
99,ROOFTOP,"386 Rue le Moyne, Montréal, QC H2Y 1Y3, Canada",ChIJn8tlGVkayUwRcTy0kxc7M3Y,"386 rue Le Moyne  (MTL), Montreal,Canada",45.5008916,-73.55721849999999,1,H2Y 1Y3,OK,premise
100,ROOFTOP,"1434 Rue de Bleury, Montréal, QC H3A 2J1, Canada",ChIJYcVqaU8ayUwRbYcqc_hAqb8,"1434 rue De Bleury  (MTL), Montreal,Canada",45.5066592,-73.5679844,1,H3A 2J1,OK,street_address
101,ROOFTOP,"350 Rue Mayor, Montréal, QC H3A 1N7, Canada",ChIJ7Rceak8ayUwRYC04asRnSsA,"350 rue Mayor  (MTL), Montreal,Canada",45.50671029999999,-73.5680663,1,H3A 1N7,OK,street_address
102,ROOFTOP,"390 Rue le Moyne, Montréal, QC H2Y 1Y3, Canada",ChIJEyPmGVkayUwRW5ZiiwJs7Qo,"390 rue Le Moyne  (MTL), Montreal,Canada",45.5008954,-73.55738199999999,1,H2Y 1Y3,OK,street_address
103,ROOFTOP,"212 Rue du Saint-Sacrement, Montréal, QC H2Y 1W8, Canada",ChIJIbgBuFkayUwRlDgoyKAlRFI,"212 rue du Saint-Sacrement  (MTL), Montreal,Canada",45.5028783,-73.5562881,1,H2Y 1W8,OK,street_address
104,ROOFTOP,"2050 Rue de Bleury, Montréal, QC H3A 3S1, Canada",ChIJkxDJy0gayUwRyhKY77MtCck,"2050 rue De Bleury  (MTL), Montreal,Canada",45.507516,-73.5697113,1,H3A 3S1,OK,street_address
105,ROOFTOP,"2100 Rue de Bleury, Montréal, QC H3A 2K3, Canada",ChIJF49OxEgayUwRRR6gz87bPlU,"2100 rue De Bleury  (MTL), Montreal,Canada",45.5077919,-73.570373,1,H3A 2K3,OK,street_address
106,ROOFTOP,"204 Rue de l'Hôpital, Montréal, QC H2Y 1V8, Canada",ChIJS1nVw1kayUwRYVaaQpM6Mzk,"204 rue de l' Hôpital  (MTL), Montreal,Canada",45.503252,-73.55668399999999,1,H2Y 1V8,OK,street_address
107,ROOFTOP,"396 Rue de la Concorde, Montréal, QC H3A 1J5, Canada",ChIJIZ3SrkgayUwRm3g9pXpbL3Q,"396 rue de la Concorde  (MTL), Montreal,Canada",45.5070011,-73.5707724,1,H3A 1J5,OK,street_address
108,ROOFTOP,"204 Rue de l'Hôpital, Montréal, QC H2Y 1V8, Canada",ChIJS1nVw1kayUwRYVaaQpM6Mzk,"204 rue de l' Hôpital  (MTL), Montreal,Canada",45.503252,-73.55668399999999,1,H2Y 1V8,OK,street_address
109,ROOFTOP,"204 Rue de l'Hôpital, Montréal, QC H2Y 1V8, Canada",ChIJS1nVw1kayUwRYVaaQpM6Mzk,"204 rue de l' Hôpital  (MTL), Montreal,Canada",45.503252,-73.55668399999999,1,H2Y 1V8,OK,street_address
110,ROOFTOP,"2133 Rue de Bleury, Montréal, QC H3A 2K2, Canada",ChIJr5u-3UgayUwRQQH6r5CTq3Y,"2133 rue De Bleury  (MTL), Montreal,Canada",45.5082236,-73.5706403,1,H3A 2K2,OK,premise
111,ROOFTOP,"204 Rue de l'Hôpital, Montréal, QC H2Y 1V8, Canada",ChIJS1nVw1kayUwRYVaaQpM6Mzk,"204 rue de l' Hôpital  (MTL), Montreal,Canada",45.503252,-73.55668399999999,1,H2Y 1V8,OK,street_address
112,ROOFTOP,"204 Rue de l'Hôpital, Montréal, QC H2Y 1V8, Canada",ChIJS1nVw1kayUwRYVaaQpM6Mzk,"204 rue de l' Hôpital  (MTL), Montreal,Canada",45.503252,-73.55668399999999,1,H2Y 1V8,OK,street_address
113,ROOFTOP,"2127 Rue de Bleury, Montréal, QC H3A 2K2, Canada",ChIJf1mm3UgayUwRWiHDwnMJ3u8,"2127 rue De Bleury  (MTL), Montreal,Canada",45.5081683,-73.5704337,1,H3A 2K2,OK,street_address
114,ROOFTOP,"204 Rue de l'Hôpital, Montréal, QC H2Y 1V8, Canada",ChIJS1nVw1kayUwRYVaaQpM6Mzk,"204 rue de l' Hôpital  (MTL), Montreal,Canada",45.503252,-73.55668399999999,1,H2Y 1V8,OK,street_address
115,ROOFTOP,"2123 Rue de Bleury, Montréal, QC H3A 2K2, Canada",ChIJDyvl3EgayUwRFGDCQc0uC2I,"2123 rue De Bleury  (MTL), Montreal,Canada",45.5081271,-73.5705237,1,H3A 2K2,OK,street_address
116,ROOFTOP,"204 Rue de l'Hôpital, Montréal, QC H2Y 1V8, Canada",ChIJS1nVw1kayUwRYVaaQpM6Mzk,"204 rue de l' Hôpital  (MTL), Montreal,Canada",45.503252,-73.55668399999999,1,H2Y 1V8,OK,street_address
117,ROOFTOP,"2117 Rue de Bleury, Montréal, QC H3A 2K2, Canada",ChIJr8mi3EgayUwRo1SUzOyhhj4,"2117 rue De Bleury  (MTL), Montreal,Canada",45.50810190000001,-73.5704179,1,H3A 2K2,OK,street_address
118,ROOFTOP,"204 Rue de l'Hôpital, Montréal, QC H2Y 1V8, Canada",ChIJS1nVw1kayUwRYVaaQpM6Mzk,"204 rue de l' Hôpital  (MTL), Montreal,Canada",45.503252,-73.55668399999999,1,H2Y 1V8,OK,street_address
119,ROOFTOP,"2105 Rue de Bleury, Montréal, QC H3A 2K2, Canada",ChIJgY8W20gayUwRpr2UisLCaqM,"2105 rue De Bleury  (MTL), Montreal,Canada",45.508062,-73.5702589,1,H3A 2K2,OK,street_address
120,ROOFTOP,"204 Rue de l'Hôpital, Montréal, QC H2Y 1V8, Canada",ChIJS1nVw1kayUwRYVaaQpM6Mzk,"204 rue de l' Hôpital  (MTL), Montreal,Canada",45.503252,-73.55668399999999,1,H2Y 1V8,OK,street_address
121,ROOFTOP,"204 Rue de l'Hôpital, Montréal, QC H2Y 1V8, Canada",ChIJS1nVw1kayUwRYVaaQpM6Mzk,"204 rue de l' Hôpital  (MTL), Montreal,Canada",45.503252,-73.55668399999999,1,H2Y 1V8,OK,street_address
122,ROOFTOP,"204 Rue de l'Hôpital, Montréal, QC H2Y 1V8, Canada",ChIJS1nVw1kayUwRYVaaQpM6Mzk,"204 rue de l' Hôpital  (MTL), Montreal,Canada",45.503252,-73.55668399999999,1,H2Y 1V8,OK,street_address
123,ROOFTOP,"2067 Rue de Bleury, Montréal, QC H3A 2K2, Canada",ChIJS6c90kgayUwRQCM9XAtPa9o,"2067 rue De Bleury  (MTL), Montreal,Canada",45.5079401,-73.5696008,1,H3A 2K2,OK,premise
124,ROOFTOP,"204 Rue de l'Hôpital, Montréal, QC H2Y 1V8, Canada",ChIJS1nVw1kayUwRYVaaQpM6Mzk,"204 rue de l' Hôpital  (MTL), Montreal,Canada",45.503252,-73.55668399999999,1,H2Y 1V8,OK,street_address
125,ROOFTOP,"204 Rue de l'Hôpital, Montréal, QC H2Y 1V8, Canada",ChIJS1nVw1kayUwRYVaaQpM6Mzk,"204 rue de l' Hôpital  (MTL), Montreal,Canada",45.503252,-73.55668399999999,1,H2Y 1V8,OK,street_address
126,ROOFTOP,"204 Rue de l'Hôpital, Montréal, QC H2Y 1V8, Canada",ChIJS1nVw1kayUwRYVaaQpM6Mzk,"204 rue de l' Hôpital  (MTL), Montreal,Canada",45.503252,-73.55668399999999,1,H2Y 1V8,OK,street_address
127,ROOFTOP,"204 Rue de l'Hôpital, Montréal, QC H2Y 1V8, Canada",ChIJS1nVw1kayUwRYVaaQpM6Mzk,"204 rue de l' Hôpital  (MTL), Montreal,Canada",45.503252,-73.55668399999999,1,H2Y 1V8,OK,street_address
128,ROOFTOP,"204 Rue de l'Hôpital, Montréal, QC H2Y 1V8, Canada",ChIJS1nVw1kayUwRYVaaQpM6Mzk,"204 rue de l' Hôpital  (MTL), Montreal,Canada",45.503252,-73.55668399999999,1,H2Y 1V8,OK,street_address
129,ROOFTOP,"204 Rue de l'Hôpital, Montréal, QC H2Y 1V8, Canada",ChIJS1nVw1kayUwRYVaaQpM6Mzk,"204 rue de l' Hôpital  (MTL), Montreal,Canada",45.503252,-73.55668399999999,1,H2Y 1V8,OK,street_address
130,ROOFTOP,"204 Rue de l'Hôpital, Montréal, QC H2Y 1V8, Canada",ChIJS1nVw1kayUwRYVaaQpM6Mzk,"204 rue de l' Hôpital  (MTL), Montreal,Canada",45.503252,-73.55668399999999,1,H2Y 1V8,OK,street_address
131,ROOFTOP,"204 Rue de l'Hôpital, Montréal, QC H2Y 1V8, Canada",ChIJS1nVw1kayUwRYVaaQpM6Mzk,"204 rue de l' Hôpital  (MTL), Montreal,Canada",45.503252,-73.55668399999999,1,H2Y 1V8,OK,street_address
132,ROOFTOP,"204 Rue de l'Hôpital, Montréal, QC H2Y 1V8, Canada",ChIJS1nVw1kayUwRYVaaQpM6Mzk,"204 rue de l' Hôpital  (MTL), Montreal,Canada",45.503252,-73.55668399999999,1,H2Y 1V8,OK,street_address
133,ROOFTOP,"204 Rue de l'Hôpital, Montréal, QC H2Y 1V8, Canada",ChIJS1nVw1kayUwRYVaaQpM6Mzk,"204 rue de l' Hôpital  (MTL), Montreal,Canada",45.503252,-73.55668399999999,1,H2Y 1V8,OK,street_address
134,ROOFTOP,"204 Rue de l'Hôpital, Montréal, QC H2Y 1V8, Canada",ChIJS1nVw1kayUwRYVaaQpM6Mzk,"204 rue de l' Hôpital  (MTL), Montreal,Canada",45.503252,-73.55668399999999,1,H2Y 1V8,OK,street_address
135,ROOFTOP,"204 Rue de l'Hôpital, Montréal, QC H2Y 1V8, Canada",ChIJS1nVw1kayUwRYVaaQpM6Mzk,"204 rue de l' Hôpital  (MTL), Montreal,Canada",45.503252,-73.55668399999999,1,H2Y 1V8,OK,street_address
136,ROOFTOP,"204 Rue de l'Hôpital, Montréal, QC H2Y 1V8, Canada",ChIJS1nVw1kayUwRYVaaQpM6Mzk,"204 rue de l' Hôpital  (MTL), Montreal,Canada",45.503252,-73.55668399999999,1,H2Y 1V8,OK,street_address
137,ROOFTOP,"204 Rue de l'Hôpital, Montréal, QC H2Y 1V8, Canada",ChIJS1nVw1kayUwRYVaaQpM6Mzk,"204 rue de l' Hôpital  (MTL), Montreal,Canada",45.503252,-73.55668399999999,1,H2Y 1V8,OK,street_address
138,ROOFTOP,"204 Rue de l'Hôpital, Montréal, QC H2Y 1V8, Canada",ChIJS1nVw1kayUwRYVaaQpM6Mzk,"204 rue de l' Hôpital  (MTL), Montreal,Canada",45.503252,-73.55668399999999,1,H2Y 1V8,OK,street_address
139,ROOFTOP,"204 Rue de l'Hôpital, Montréal, QC H2Y 1V8, Canada",ChIJS1nVw1kayUwRYVaaQpM6Mzk,"204 rue de l' Hôpital  (MTL), Montreal,Canada",45.503252,-73.55668399999999,1,H2Y 1V8,OK,street_address
140,ROOFTOP,"204 Rue de l'Hôpital, Montréal, QC H2Y 1V8, Canada",ChIJS1nVw1kayUwRYVaaQpM6Mzk,"204 rue de l' Hôpital  (MTL), Montreal,Canada",45.503252,-73.55668399999999,1,H2Y 1V8,OK,street_address
141,ROOFTOP,"204 Rue de l'Hôpital, Montréal, QC H2Y 1V8, Canada",ChIJS1nVw1kayUwRYVaaQpM6Mzk,"204 rue de l' Hôpital  (MTL), Montreal,Canada",45.503252,-73.55668399999999,1,H2Y 1V8,OK,street_address
142,ROOFTOP,"204 Rue de l'Hôpital, Montréal, QC H2Y 1V8, Canada",ChIJS1nVw1kayUwRYVaaQpM6Mzk,"204 rue de l' Hôpital  (MTL), Montreal,Canada",45.503252,-73.55668399999999,1,H2Y 1V8,OK,street_address
143,ROOFTOP,"204 Rue de l'Hôpital, Montréal, QC H2Y 1V8, Canada",ChIJS1nVw1kayUwRYVaaQpM6Mzk,"204 rue de l' Hôpital  (MTL), Montreal,Canada",45.503252,-73.55668399999999,1,H2Y 1V8,OK,street_address
144,ROOFTOP,"204 Rue de l'Hôpital, Montréal, QC H2Y 1V8, Canada",ChIJS1nVw1kayUwRYVaaQpM6Mzk,"204 rue de l' Hôpital  (MTL), Montreal,Canada",45.503252,-73.55668399999999,1,H2Y 1V8,OK,street_address
145,ROOFTOP,"1067 Rue de Bleury, Montréal, QC H2Z 1N1, Canada",ChIJnSz4oloayUwRuQtE8rksYiA,"1067 rue De Bleury  (MTL), Montreal,Canada",45.5045815,-73.562839,1,H2Z 1N1,OK,street_address
146,ROOFTOP,"204 Rue de l'Hôpital, Montréal, QC H2Y 1V8, Canada",ChIJS1nVw1kayUwRYVaaQpM6Mzk,"204 rue de l' Hôpital  (MTL), Montreal,Canada",45.503252,-73.55668399999999,1,H2Y 1V8,OK,street_address
147,ROOFTOP,"204 Rue de l'Hôpital, Montréal, QC H2Y 1V8, Canada",ChIJS1nVw1kayUwRYVaaQpM6Mzk,"204 rue de l' Hôpital  (MTL), Montreal,Canada",45.503252,-73.55668399999999,1,H2Y 1V8,OK,street_address
148,ROOFTOP,"315 Rue de la Gauchetière O, Montréal, QC H2Z 1C8, Canada",ChIJsRZcmFoayUwRPOD_tkNfw7k,"315 rue De La Gauchetière Ouest  (MTL), Montreal,Canada",45.5045127,-73.5627658,1,H2Z 1C8,OK,premise
149,ROOFTOP,"204 Rue de l'Hôpital, Montréal, QC H2Y 1V8, Canada",ChIJS1nVw1kayUwRYVaaQpM6Mzk,"204 rue de l' Hôpital  (MTL), Montreal,Canada",45.503252,-73.55668399999999,1,H2Y 1V8,OK,street_address
150,ROOFTOP,"204 Rue de l'Hôpital, Montréal, QC H2Y 1V8, Canada",ChIJS1nVw1kayUwRYVaaQpM6Mzk,"204 rue de l' Hôpital  (MTL), Montreal,Canada",45.503252,-73.55668399999999,1,H2Y 1V8,OK,street_address
151,ROOFTOP,"1025 Rue de Bleury, Montréal, QC H2Z 1M7, Canada",ChIJqxijkVoayUwRuGqaMysAVxk,"1025 rue De Bleury  (MTL), Montreal,Canada",45.5043447,-73.56218199999999,1,H2Z 1M7,OK,street_address
152,ROOFTOP,"1021 Rue de Bleury, Montréal, QC H2Z 1M7, Canada",ChIJm48sjloayUwRDweFdtBfiyg,"1021 rue De Bleury  (MTL), Montreal,Canada",45.504204,-73.5621699,1,H2Z 1M7,OK,street_address
153,ROOFTOP,"408 Rue Saint-François-Xavier, Montréal, QC H2Y 2S9, Canada",ChIJ4T26ylkayUwRJwRAeq8ySx0,"408 rue Saint-François-Xavier  (MTL), Montreal,Canada",45.5026916,-73.5557108,1,H2Y 2S9,OK,street_address
154,ROOFTOP,"434 Rue Saint-François-Xavier, Montréal, QC H2Y 2T3, Canada",ChIJ2XTZxVkayUwR6Il8_ejS4c0,"434 rue Saint-François-Xavier  (MTL), Montreal,Canada",45.5031992,-73.55623489999999,1,H2Y 2T3,OK,street_address
155,ROOFTOP,"430 Rue Saint-François-Xavier, Montréal, QC H2Y 2T3, Canada",ChIJrw1AxlkayUwRc_Z66ywMpZc,"430 rue Saint-François-Xavier  (MTL), Montreal,Canada",45.5030903,-73.5562346,1,H2Y 2T3,OK,premise
156,ROOFTOP,"3422 Av du Parc, Montréal, QC H2X 2H5, Canada",ChIJ3Rba_kgayUwRbS9YL-kLFpU,"3422 avenue du Parc  (MTL), Montreal,Canada",45.5085682,-73.5719484,1,H2X 2H5,OK,street_address
157,ROOFTOP,"423 Rue Saint Nicolas, Montréal, QC H2Y 2P4, Canada",ChIJ9eShsVkayUwRXphkgFXgGhQ,"423 rue Saint-Nicolas  (MTL), Montreal,Canada",45.5023192,-73.5561163,1,H2Y 2P4,OK,street_address
158,ROOFTOP,"410 Rue Saint Nicolas, Montréal, QC H2Y 2P5, Canada",ChIJRXBjq1kayUwRhdo8_t_TB-c,"410 rue Saint-Nicolas  (MTL), Montreal,Canada",45.50202789999999,-73.5562728,1,H2Y 2P5,OK,premise
159,ROOFTOP,"451 Rue Saint Jean, Montréal, QC H2Y 2R5, Canada",ChIJG5DBvFkayUwRBge52Ez3SGc,"451 rue Saint-Jean  (MTL), Montreal,Canada",45.50246930000001,-73.55706889999999,1,H2Y 2R5,OK,street_address
160,ROOFTOP,"3458 Av du Parc, Montréal, QC H2X 2H5, Canada",ChIJjeOrskkayUwRmzd5CBRe3WU,"3458 avenue du Parc  (MTL), Montreal,Canada",45.5089737,-73.5728085,1,H2X 2H5,OK,street_address
161,ROOFTOP,"486 Rue Saint Jean, Montréal, QC H2Y 1T3, Canada",ChIJKwwaklkayUwRfxfroMvM-Jk,"486 rue Saint-Jean  (MTL), Montreal,Canada",45.50286070000001,-73.5578933,1,H2Y 1T3,OK,street_address
162,ROOFTOP,"3462 Av du Parc, Montréal, QC H2X 2H5, Canada",ChIJs6YgTUgayUwRCBDcrqkXO3g,"3462 avenue du Parc  (MTL), Montreal,Canada",45.5089966,-73.5729565,1,H2X 2H5,OK,premise
163,ROOFTOP,"486 Rue Saint Jean, Montréal, QC H2Y 1T3, Canada",ChIJKwwaklkayUwRfxfroMvM-Jk,"486 rue Saint-Jean  (MTL), Montreal,Canada",45.50286070000001,-73.5578933,1,H2Y 1T3,OK,street_address
164,ROOFTOP,"486 Rue Saint Jean, Montréal, QC H2Y 1T3, Canada",ChIJKwwaklkayUwRfxfroMvM-Jk,"486 rue Saint-Jean  (MTL), Montreal,Canada",45.50286070000001,-73.5578933,1,H2Y 1T3,OK,street_address
165,ROOFTOP,"3474 Av du Parc, Montréal, QC H2X 2H5, Canada",ChIJQcFVtEkayUwR-rqiHQWm-bg,"3474 avenue du Parc  (MTL), Montreal,Canada",45.509181,-73.57327169999999,1,H2X 2H5,OK,street_address
166,ROOFTOP,"3480 Av du Parc, Montréal, QC H2X 2H5, Canada",ChIJreVitUkayUwR1skU4q-Ga8Q,"3480 avenue du Parc  (MTL), Montreal,Canada",45.5091259,-73.5734417,1,H2X 2H5,OK,premise
167,ROOFTOP,"3486 Av du Parc, Montréal, QC H2X 2H5, Canada",ChIJtSiKtUkayUwRo35KH7zBggQ,"3486 avenue du Parc  (MTL), Montreal,Canada",45.5092589,-73.5734459,1,H2X 2H5,OK,street_address
168,ROOFTOP,"3498 Av du Parc, Montréal, QC H2X 2H5, Canada",ChIJKzvSy0kayUwRFouGw9_gLvs,"3498 avenue du Parc  (MTL), Montreal,Canada",45.5091901,-73.5736878,1,H2X 2H5,OK,street_address
169,ROOFTOP,"3654 Av du Parc, Montréal, QC H2X 2J1, Canada",ChIJxUMHaDYayUwRYRTuaPbifHI,"3654 avenue du Parc  (MTL), Montreal,Canada",45.5107692,-73.5767485,1,H2X 2J1,OK,street_address
170,ROOFTOP,"3678 Av du Parc, Montréal, QC H2X 2J1, Canada",ChIJQ4ksZzYayUwR9VEIK23psKM,"3678 avenue du Parc  (MTL), Montreal,Canada",45.5109226,-73.5770696,1,H2X 2J1,OK,street_address
171,ROOFTOP,"3688 Av du Parc, Montréal, QC H2X 2J1, Canada",ChIJJYAcYTYayUwR_a3yHD2HVTs,"3688 avenue du Parc  (MTL), Montreal,Canada",45.5109815,-73.5771912,1,H2X 2J1,OK,street_address
172,ROOFTOP,"350 Rue Prince Arthur O, Montréal, QC H2X 3R2, Canada",ChIJ7fKhQTYayUwRBTxs-MtZTRg,"350 rue Prince-Arthur Ouest  (MTL), Montreal,Canada",45.5100707,-73.5756385,1,H2X 3R2,OK,street_address
173,ROOFTOP,"3487 Av du Parc, Montréal, QC H2X 2H6, Canada",ChIJg7vNuUkayUwREbQOEmt54Ss,"3487 avenue du Parc  (MTL), Montreal,Canada",45.5095126,-73.5731232,1,H2X 2H6,OK,premise
174,ROOFTOP,"3485 Av du Parc, Montréal, QC H2X 2H6, Canada",ChIJf-tqt0kayUwRLdmUcxXx9XY,"3485 avenue du Parc  (MTL), Montreal,Canada",45.5095332,-73.5730064,1,H2X 2H6,OK,premise
175,ROOFTOP,"3481 Av du Parc, Montréal, QC H2X 2H6, Canada",ChIJnRRNsUkayUwRcY6FRrr1WdY,"3481 avenue du Parc  (MTL), Montreal,Canada",45.5094704,-73.5729649,1,H2X 2H6,OK,street_address
176,ROOFTOP,"3475 Av du Parc, Montréal, QC H2X 2H6, Canada",ChIJraRLsEkayUwRazNmbvhsCLg,"3475 avenue du Parc  (MTL), Montreal,Canada",45.5094278,-73.572676,1,H2X 2H6,OK,premise
177,ROOFTOP,"3467 Av du Parc, Montréal, QC H2X 2H6, Canada",ChIJUb0eskkayUwREgsBe5bJdUA,"3467 avenue du Parc  (MTL), Montreal,Canada",45.5092305,-73.5727172,1,H2X 2H6,OK,street_address
178,ROOFTOP,"3463 Av du Parc, Montréal, QC H2X 2H5, Canada",ChIJNUBCyUkayUwRMhBKl_E_pyw,"3463 avenue du Parc  (MTL), Montreal,Canada",45.5092101,-73.5726055,1,H2X 2H5,OK,street_address
179,ROOFTOP,"3457 Av du Parc, Montréal, QC H2X 2H6, Canada",ChIJNW9SrEkayUwRE2gKnY3o7Dk,"3457 avenue du Parc  (MTL), Montreal,Canada",45.5090943,-73.57248940000001,1,H2X 2H6,OK,street_address
180,ROOFTOP,"3451 Av du Parc, Montréal, QC H2X 2H6, Canada",ChIJez19q0kayUwR7I8wL2uDJwc,"3451 avenue du Parc  (MTL), Montreal,Canada",45.5090049,-73.5723404,1,H2X 2H6,OK,street_address
181,ROOFTOP,"1054 Rue Anderson, Montréal, QC H2Z 1L9, Canada",ChIJn9Bon1oayUwRPSoEiFpDwwg,"1054 rue Anderson  (MTL), Montreal,Canada",45.5048222,-73.5626091,1,H2Z 1L9,OK,street_address
182,ROOFTOP,"1058 Rue Anderson, Montréal, QC H2Z 1L9, Canada",ChIJr53WoVoayUwRsKpKQdLm4So,"1058 rue Anderson  (MTL), Montreal,Canada",45.504886,-73.5626994,1,H2Z 1L9,OK,premise
183,ROOFTOP,"1062 Rue Anderson, Montréal, QC H2Z 1L9, Canada",ChIJiyi1oVoayUwRtjRmsgI22gM,"1062 rue Anderson  (MTL), Montreal,Canada",45.50489899999999,-73.56274400000001,1,H2Z 1L9,OK,street_address
184,ROOFTOP,"1066 Rue Anderson, Montréal, QC H2Z 1L9, Canada",ChIJ-xpYoFoayUwRxL4Ck9FJvEc,"1066 rue Anderson  (MTL), Montreal,Canada",45.5049494,-73.5628028,1,H2Z 1L9,OK,street_address
185,ROOFTOP,"1070 Rue Anderson, Montréal, QC H2Z 1L9, Canada",ChIJa-vuoFoayUwRkg5jP5bVaqU,"1070 rue Anderson  (MTL), Montreal,Canada",45.5049706,-73.5628649,1,H2Z 1L9,OK,street_address
186,ROOFTOP,"1107 Rue Anderson, Montréal, QC H2Z 1M1, Canada",ChIJsQtVAVAayUwROZnCi9ZXDkc,"1107 rue Anderson  (MTL), Montreal,Canada",45.5054695,-73.563559,1,H2Z 1M1,OK,street_address
187,ROOFTOP,"1103 Rue Anderson, Montréal, QC H2Z 1M1, Canada",ChIJeQeVBlAayUwR33pe2rqnJGo,"1103 rue Anderson  (MTL), Montreal,Canada",45.5053963,-73.5634747,1,H2Z 1M1,OK,street_address
188,ROOFTOP,"1099 Rue Anderson, Montréal, QC H2Z 1M1, Canada",ChIJpTlcBlAayUwRPK7Wq78B6ok,"1099 rue Anderson  (MTL), Montreal,Canada",45.50535929999999,-73.5633708,1,H2Z 1M1,OK,street_address
189,ROOFTOP,"1095 Rue Anderson, Montréal, QC H2Z 1M1, Canada",ChIJ1UcRBlAayUwRfI5ORMpeZwI,"1095 rue Anderson  (MTL), Montreal,Canada",45.505376,-73.563256,1,H2Z 1M1,OK,street_address
190,ROOFTOP,"1087 Rue Anderson, Montréal, QC H2Z 1M1, Canada",ChIJ4WTDCFAayUwR2LNrPlllxWk,"1087 rue Anderson  (MTL), Montreal,Canada",45.5053027,-73.5630527,1,H2Z 1M1,OK,premise
191,RANGE_INTERPOLATED,"1074 Rue Jeanne-Mance, Montréal, QC H2Z 1L7, Canada",EjQxMDc0IFJ1ZSBKZWFubmUtTWFuY2UsIE1vbnRyw6lhbCwgUUMgSDJaIDFMNywgQ2FuYWRhIhsSGQoUChIJj1x1DlAayUwR6iCJPav4oIwQsgg,"1074 rue Jeanne-Mance  (MTL), Montreal,Canada",45.505398,-73.5624847,1,H2Z 1L7,OK,street_address
192,RANGE_INTERPOLATED,"1078 Rue Jeanne-Mance, Montréal, QC H2Z 1L7, Canada",EjQxMDc4IFJ1ZSBKZWFubmUtTWFuY2UsIE1vbnRyw6lhbCwgUUMgSDJaIDFMNywgQ2FuYWRhIhsSGQoUChIJj1x1DlAayUwR6iCJPav4oIwQtgg,"1078 rue Jeanne-Mance  (MTL), Montreal,Canada",45.5054262,-73.56254489999999,1,H2Z 1L7,OK,street_address
193,ROOFTOP,"1082 Rue Jeanne-Mance, Montréal, QC H2Z 1L7, Canada",ChIJO-LKDVAayUwR4kIE0yx28t4,"1082 rue Jeanne-Mance  (MTL), Montreal,Canada",45.5054915,-73.5626041,1,H2Z 1L7,OK,street_address
194,RANGE_INTERPOLATED,"1250 Rue Jeanne-Mance, Montréal, QC H2X, Canada",EiwxMjUwIFJ1ZSBKZWFubmUtTWFuY2UsIE1vbnRyw6lhbCwgUUMsIENhbmFkYSIbEhkKFAoSCdWmtb1PGslMESN_BzVjTnQ7EOIJ,"1250 rue Jeanne-Mance  (MTL), Montreal,Canada",45.5066577,-73.5656891,1,H2X,OK,street_address
195,RANGE_INTERPOLATED,"1101 Rue Jeanne-Mance, Montréal, QC H2Z 1W8, Canada",EjQxMTAxIFJ1ZSBKZWFubmUtTWFuY2UsIE1vbnRyw6lhbCwgUUMgSDJaIDFXOCwgQ2FuYWRhIhsSGQoUChIJj1x1DlAayUwR6yCJPav4oIwQzQg,"1101 rue Jeanne-Mance  (MTL), Montreal,Canada",45.505677,-73.5625702,1,H2Z 1W8,OK,street_address
196,RANGE_INTERPOLATED,"2020 Rue Jeanne-Mance, Montréal, QC H2X 2J5, Canada",EjQyMDIwIFJ1ZSBKZWFubmUtTWFuY2UsIE1vbnRyw6lhbCwgUUMgSDJYIDJKNSwgQ2FuYWRhIhsSGQoUChIJXzbvKkkayUwRkHYNBIREvLkQ5A8,"2020 rue Jeanne-Mance  (MTL), Montreal,Canada",45.508298,-73.5689893,1,H2X 2J5,OK,street_address
197,RANGE_INTERPOLATED,"2028 Rue Jeanne-Mance, Montréal, QC H2X 2J5, Canada",EjQyMDI4IFJ1ZSBKZWFubmUtTWFuY2UsIE1vbnRyw6lhbCwgUUMgSDJYIDJKNSwgQ2FuYWRhIhsSGQoUChIJXzbvKkkayUwRkHYNBIREvLkQ7A8,"2028 rue Jeanne-Mance  (MTL), Montreal,Canada",45.50836779999999,-73.56913329999999,1,H2X 2J5,OK,street_address
198,RANGE_INTERPOLATED,"2032 Rue Jeanne-Mance, Montréal, QC H2X 2J5, Canada",EjQyMDMyIFJ1ZSBKZWFubmUtTWFuY2UsIE1vbnRyw6lhbCwgUUMgSDJYIDJKNSwgQ2FuYWRhIhsSGQoUChIJXzbvKkkayUwRkHYNBIREvLkQ8A8,"2032 rue Jeanne-Mance  (MTL), Montreal,Canada",45.5084054,-73.5692107,1,H2X 2J5,OK,street_address
199,RANGE_INTERPOLATED,"2038 Rue Jeanne-Mance, Montréal, QC H2X 2J5, Canada",EjQyMDM4IFJ1ZSBKZWFubmUtTWFuY2UsIE1vbnRyw6lhbCwgUUMgSDJYIDJKNSwgQ2FuYWRhIhsSGQoUChIJXzbvKkkayUwRkHYNBIREvLkQ9g8,"2038 rue Jeanne-Mance  (MTL), Montreal,Canada",45.5084449,-73.56929219999999,1,H2X 2J5,OK,street_address
200,RANGE_INTERPOLATED,"2044 Rue Jeanne-Mance, Montréal, QC H2X 2J5, Canada",EjQyMDQ0IFJ1ZSBKZWFubmUtTWFuY2UsIE1vbnRyw6lhbCwgUUMgSDJYIDJKNSwgQ2FuYWRhIhsSGQoUChIJXzbvKkkayUwRkHYNBIREvLkQ_A8,"2044 rue Jeanne-Mance  (MTL), Montreal,Canada",45.5086232,-73.5692357,1,H2X 2J5,OK,street_address
201,ROOFTOP,"2048 Rue Jeanne-Mance, Montréal, QC H2X 2J5, Canada",ChIJneK_KUkayUwROx1sygZamIs,"2048 rue Jeanne-Mance  (MTL), Montreal,Canada",45.5085396,-73.569434,1,H2X 2J5,OK,premise
202,RANGE_INTERPOLATED,"2054 Rue Jeanne-Mance, Montréal, QC H2X 2J5, Canada",EjQyMDU0IFJ1ZSBKZWFubmUtTWFuY2UsIE1vbnRyw6lhbCwgUUMgSDJYIDJKNSwgQ2FuYWRhIhsSGQoUChIJJQY5JEkayUwRBg5pxmbOf4oQhhA,"2054 rue Jeanne-Mance  (MTL), Montreal,Canada",45.508569,-73.5695188,1,H2X 2J5,OK,street_address
203,RANGE_INTERPOLATED,"2066 Rue Jeanne-Mance, Montréal, QC H2X 2J5, Canada",EjQyMDY2IFJ1ZSBKZWFubmUtTWFuY2UsIE1vbnRyw6lhbCwgUUMgSDJYIDJKNSwgQ2FuYWRhIhsSGQoUChIJJQY5JEkayUwRBg5pxmbOf4oQkhA,"2066 rue Jeanne-Mance  (MTL), Montreal,Canada",45.5086485,-73.5696883,1,H2X 2J5,OK,street_address
204,RANGE_INTERPOLATED,"2070 Rue Jeanne-Mance, Montréal, QC H2X 2J5, Canada",EjQyMDcwIFJ1ZSBKZWFubmUtTWFuY2UsIE1vbnRyw6lhbCwgUUMgSDJYIDJKNSwgQ2FuYWRhIhsSGQoUChIJJQY5JEkayUwRBg5pxmbOf4oQlhA,"2070 rue Jeanne-Mance  (MTL), Montreal,Canada",45.50867849999999,-73.5697522,1,H2X 2J5,OK,street_address
205,RANGE_INTERPOLATED,"2074 Rue Jeanne-Mance, Montréal, QC H2X 2J5, Canada",EjQyMDc0IFJ1ZSBKZWFubmUtTWFuY2UsIE1vbnRyw6lhbCwgUUMgSDJYIDJKNSwgQ2FuYWRhIhsSGQoUChIJJQY5JEkayUwRBg5pxmbOf4oQmhA,"2074 rue Jeanne-Mance  (MTL), Montreal,Canada",45.5087301,-73.5698622,1,H2X 2J5,OK,street_address
206,ROOFTOP,"2078 Rue Jeanne-Mance, Montréal, QC H2X 2J5, Canada",ChIJfe2iJkkayUwRdg6kyiQl6aQ,"2078 rue Jeanne-Mance  (MTL), Montreal,Canada",45.50879339999999,-73.56986410000002,1,H2X 2J5,OK,street_address
207,RANGE_INTERPOLATED,"2080 Rue Jeanne-Mance, Montréal, QC H2X 2J5, Canada",EjQyMDgwIFJ1ZSBKZWFubmUtTWFuY2UsIE1vbnRyw6lhbCwgUUMgSDJYIDJKNSwgQ2FuYWRhIhsSGQoUChIJXWEAGkkayUwRCr4c8Hof4noQoBA,"2080 rue Jeanne-Mance  (MTL), Montreal,Canada",45.50911960000001,-73.5702936,1,H2X 2J5,OK,street_address
208,RANGE_INTERPOLATED,"2082 Rue Jeanne-Mance, Montréal, QC H2X 2J5, Canada",EjQyMDgyIFJ1ZSBKZWFubmUtTWFuY2UsIE1vbnRyw6lhbCwgUUMgSDJYIDJKNSwgQ2FuYWRhIhsSGQoUChIJXWEAGkkayUwRCr4c8Hof4noQohA,"2082 rue Jeanne-Mance  (MTL), Montreal,Canada",45.5090119,-73.570463,1,H2X 2J5,OK,street_address
209,RANGE_INTERPOLATED,"2086 Rue Jeanne-Mance, Montréal, QC H2X 2J5, Canada",EjQyMDg2IFJ1ZSBKZWFubmUtTWFuY2UsIE1vbnRyw6lhbCwgUUMgSDJYIDJKNSwgQ2FuYWRhIhsSGQoUChIJXWEAGkkayUwRCr4c8Hof4noQphA,"2086 rue Jeanne-Mance  (MTL), Montreal,Canada",45.509055,-73.57055509999999,1,H2X 2J5,OK,street_address
210,RANGE_INTERPOLATED,"2090 Rue Jeanne-Mance, Montréal, QC H2X 2J5, Canada",EjQyMDkwIFJ1ZSBKZWFubmUtTWFuY2UsIE1vbnRyw6lhbCwgUUMgSDJYIDJKNSwgQ2FuYWRhIhsSGQoUChIJXWEAGkkayUwRCr4c8Hof4noQqhA,"2090 rue Jeanne-Mance  (MTL), Montreal,Canada",45.5090982,-73.5706471,1,H2X 2J5,OK,street_address
211,RANGE_INTERPOLATED,"3462 Rue Jeanne-Mance, Montréal, QC H2X 2J8, Canada",EjQzNDYyIFJ1ZSBKZWFubmUtTWFuY2UsIE1vbnRyw6lhbCwgUUMgSDJYIDJKOCwgQ2FuYWRhIhsSGQoUChIJ6Uvko0kayUwRVlwxJtRAIfMQhhs,"3462 rue Jeanne-Mance  (MTL), Montreal,Canada",45.50973339999999,-73.5723761,1,H2X 2J8,OK,street_address
212,RANGE_INTERPOLATED,"3466 Rue Jeanne-Mance, Montréal, QC H2X 2J8, Canada",EjQzNDY2IFJ1ZSBKZWFubmUtTWFuY2UsIE1vbnRyw6lhbCwgUUMgSDJYIDJKOCwgQ2FuYWRhIhsSGQoUChIJ6Uvko0kayUwRVlwxJtRAIfMQihs,"3466 rue Jeanne-Mance  (MTL), Montreal,Canada",45.50974710000001,-73.5724053,1,H2X 2J8,OK,street_address
213,RANGE_INTERPOLATED,"3472 Rue Jeanne-Mance, Montréal, QC H2X 2J8, Canada",EjQzNDcyIFJ1ZSBKZWFubmUtTWFuY2UsIE1vbnRyw6lhbCwgUUMgSDJYIDJKOCwgQ2FuYWRhIhsSGQoUChIJ6Uvko0kayUwRVlwxJtRAIfMQkBs,"3472 rue Jeanne-Mance  (MTL), Montreal,Canada",45.5097746,-73.57246359999999,1,H2X 2J8,OK,street_address
214,RANGE_INTERPOLATED,"3478 Rue Jeanne-Mance, Montréal, QC H2X 2J8, Canada",EjQzNDc4IFJ1ZSBKZWFubmUtTWFuY2UsIE1vbnRyw6lhbCwgUUMgSDJYIDJKOCwgQ2FuYWRhIhsSGQoUChIJ6Uvko0kayUwRVlwxJtRAIfMQlhs,"3478 rue Jeanne-Mance  (MTL), Montreal,Canada",45.5098596,-73.5726445,1,H2X 2J8,OK,street_address
215,RANGE_INTERPOLATED,"3480 Rue Jeanne-Mance, Montréal, QC H2X 2J8, Canada",EjQzNDgwIFJ1ZSBKZWFubmUtTWFuY2UsIE1vbnRyw6lhbCwgUUMgSDJYIDJKOCwgQ2FuYWRhIhsSGQoUChIJ6Uvko0kayUwRVlwxJtRAIfMQmBs,"3480 rue Jeanne-Mance  (MTL), Montreal,Canada",45.50986,-73.5726454,1,H2X 2J8,OK,street_address
216,RANGE_INTERPOLATED,"3484 Rue Jeanne-Mance, Montréal, QC H2X 2J8, Canada",EjQzNDg0IFJ1ZSBKZWFubmUtTWFuY2UsIE1vbnRyw6lhbCwgUUMgSDJYIDJKOCwgQ2FuYWRhIhsSGQoUChIJ6Uvko0kayUwRVlwxJtRAIfMQnBs,"3484 rue Jeanne-Mance  (MTL), Montreal,Canada",45.5099046,-73.5727402,1,H2X 2J8,OK,street_address
217,RANGE_INTERPOLATED,"3486 Rue Jeanne-Mance, Montréal, QC H2X 2J8, Canada",EjQzNDg2IFJ1ZSBKZWFubmUtTWFuY2UsIE1vbnRyw6lhbCwgUUMgSDJYIDJKOCwgQ2FuYWRhIhsSGQoUChIJ6Uvko0kayUwRVlwxJtRAIfMQnhs,"3486 rue Jeanne-Mance  (MTL), Montreal,Canada",45.5099259,-73.5727855,1,H2X 2J8,OK,street_address
218,RANGE_INTERPOLATED,"3490 Rue Jeanne-Mance, Montréal, QC H2X 2J8, Canada",EjQzNDkwIFJ1ZSBKZWFubmUtTWFuY2UsIE1vbnRyw6lhbCwgUUMgSDJYIDJKOCwgQ2FuYWRhIhsSGQoUChIJ6Uvko0kayUwRVlwxJtRAIfMQohs,"3490 rue Jeanne-Mance  (MTL), Montreal,Canada",45.5099563,-73.57285019999999,1,H2X 2J8,OK,street_address
219,ROOFTOP,"3494 Rue Jeanne-Mance, Montréal, QC H2X 2K1, Canada",ChIJlT6dv0kayUwRUJEYv6AxEaI,"3494 rue Jeanne-Mance  (MTL), Montreal,Canada",45.5100392,-73.5729382,1,H2X 2K1,OK,street_address
220,RANGE_INTERPOLATED,"3640 Rue Jeanne-Mance, Montréal, QC H2X 2K5, Canada",EjQzNjQwIFJ1ZSBKZWFubmUtTWFuY2UsIE1vbnRyw6lhbCwgUUMgSDJYIDJLNSwgQ2FuYWRhIhsSGQoUChIJ4_v5czYayUwRGWqcvD70Fa8QuBw,"3640 rue Jeanne-Mance  (MTL), Montreal,Canada",45.51126190000001,-73.575668,1,H2X 2K5,OK,street_address
221,RANGE_INTERPOLATED,"3666 Rue Jeanne-Mance, Montréal, QC H2X 2K5, Canada",EjQzNjY2IFJ1ZSBKZWFubmUtTWFuY2UsIE1vbnRyw6lhbCwgUUMgSDJYIDJLNSwgQ2FuYWRhIhsSGQoUChIJ4_v5czYayUwRGWqcvD70Fa8Q0hw,"3666 rue Jeanne-Mance  (MTL), Montreal,Canada",45.5113169,-73.5757879,1,H2X 2K5,OK,street_address
222,RANGE_INTERPOLATED,"3666 Rue Jeanne-Mance, Montréal, QC H2X 2K5, Canada",EjQzNjY2IFJ1ZSBKZWFubmUtTWFuY2UsIE1vbnRyw6lhbCwgUUMgSDJYIDJLNSwgQ2FuYWRhIhsSGQoUChIJ4_v5czYayUwRGWqcvD70Fa8Q0hw,"3666 rue Jeanne-Mance  (MTL), Montreal,Canada",45.5113169,-73.5757879,1,H2X 2K5,OK,street_address
223,RANGE_INTERPOLATED,"3666 Rue Jeanne-Mance, Montréal, QC H2X 2K5, Canada",EjQzNjY2IFJ1ZSBKZWFubmUtTWFuY2UsIE1vbnRyw6lhbCwgUUMgSDJYIDJLNSwgQ2FuYWRhIhsSGQoUChIJ4_v5czYayUwRGWqcvD70Fa8Q0hw,"3666 rue Jeanne-Mance  (MTL), Montreal,Canada",45.5113169,-73.5757879,1,H2X 2K5,OK,street_address
224,ROOFTOP,"315 Rue Prince Arthur O, Montréal, QC H2X, Canada",ChIJCxx_EjYayUwR-KEdyLcqKJM,"315 rue Prince-Arthur Ouest  (MTL), Montreal,Canada",45.5112143,-73.5755551,1,H2X,OK,premise
225,ROOFTOP,"315 Rue Prince Arthur O, Montréal, QC H2X, Canada",ChIJCxx_EjYayUwR-KEdyLcqKJM,"315 rue Prince-Arthur Ouest  (MTL), Montreal,Canada",45.5112143,-73.5755551,1,H2X,OK,premise
226,ROOFTOP,"315 Rue Prince Arthur O, Montréal, QC H2X, Canada",ChIJCxx_EjYayUwR-KEdyLcqKJM,"315 rue Prince-Arthur Ouest  (MTL), Montreal,Canada",45.5112143,-73.5755551,1,H2X,OK,premise
227,RANGE_INTERPOLATED,"3640 Rue Jeanne-Mance, Montréal, QC H2X 2K5, Canada",EjQzNjQwIFJ1ZSBKZWFubmUtTWFuY2UsIE1vbnRyw6lhbCwgUUMgSDJYIDJLNSwgQ2FuYWRhIhsSGQoUChIJ4_v5czYayUwRGWqcvD70Fa8QuBw,"3640 rue Jeanne-Mance  (MTL), Montreal,Canada",45.51126190000001,-73.575668,1,H2X 2K5,OK,street_address
228,RANGE_INTERPOLATED,"3640 Rue Jeanne-Mance, Montréal, QC H2X 2K5, Canada",EjQzNjQwIFJ1ZSBKZWFubmUtTWFuY2UsIE1vbnRyw6lhbCwgUUMgSDJYIDJLNSwgQ2FuYWRhIhsSGQoUChIJ4_v5czYayUwRGWqcvD70Fa8QuBw,"3640 rue Jeanne-Mance  (MTL), Montreal,Canada",45.51126190000001,-73.575668,1,H2X 2K5,OK,street_address
229,RANGE_INTERPOLATED,"3700 Rue Jeanne-Mance, Montréal, QC H2X 2K5, Canada",EjQzNzAwIFJ1ZSBKZWFubmUtTWFuY2UsIE1vbnRyw6lhbCwgUUMgSDJYIDJLNSwgQ2FuYWRhIhsSGQoUChIJz9-8KjQayUwR-bmEOq-ydcwQ9Bw,"3700 rue Jeanne-Mance  (MTL), Montreal,Canada",45.5117927,-73.5768171,1,H2X 2K5,OK,street_address
230,ROOFTOP,"3702 Rue Jeanne-Mance, Montréal, QC H2X 2K5, Canada",ChIJO6dNfjYayUwRlTAVElk1TVQ,"3702 rue Jeanne-Mance  (MTL), Montreal,Canada",45.5118071,-73.5768301,1,H2X 2K5,OK,street_address
231,RANGE_INTERPOLATED,"3704 Rue Jeanne-Mance, Montréal, QC H2X 2K5, Canada",EjQzNzA0IFJ1ZSBKZWFubmUtTWFuY2UsIE1vbnRyw6lhbCwgUUMgSDJYIDJLNSwgQ2FuYWRhIhsSGQoUChIJz9-8KjQayUwR-bmEOq-ydcwQ-Bw,"3704 rue Jeanne-Mance  (MTL), Montreal,Canada",45.5118055,-73.5768446,1,H2X 2K5,OK,street_address
232,RANGE_INTERPOLATED,"3706 Rue Jeanne-Mance, Montréal, QC H2X 2K5, Canada",EjQzNzA2IFJ1ZSBKZWFubmUtTWFuY2UsIE1vbnRyw6lhbCwgUUMgSDJYIDJLNSwgQ2FuYWRhIhsSGQoUChIJz9-8KjQayUwR-bmEOq-ydcwQ-hw,"3706 rue Jeanne-Mance  (MTL), Montreal,Canada",45.5118142,-73.5768633,1,H2X 2K5,OK,street_address
233,RANGE_INTERPOLATED,"3708 Rue Jeanne-Mance, Montréal, QC H2X 2K5, Canada",EjQzNzA4IFJ1ZSBKZWFubmUtTWFuY2UsIE1vbnRyw6lhbCwgUUMgSDJYIDJLNSwgQ2FuYWRhIhsSGQoUChIJz9-8KjQayUwR-bmEOq-ydcwQ_Bw,"3708 rue Jeanne-Mance  (MTL), Montreal,Canada",45.5118222,-73.5768805,1,H2X 2K5,OK,street_address
234,RANGE_INTERPOLATED,"3710 Rue Jeanne-Mance, Montréal, QC H2X 2K5, Canada",EjQzNzEwIFJ1ZSBKZWFubmUtTWFuY2UsIE1vbnRyw6lhbCwgUUMgSDJYIDJLNSwgQ2FuYWRhIhsSGQoUChIJz9-8KjQayUwR-bmEOq-ydcwQ_hw,"3710 rue Jeanne-Mance  (MTL), Montreal,Canada",45.5118291,-73.5768954,1,H2X 2K5,OK,street_address
235,RANGE_INTERPOLATED,"3712 Rue Jeanne-Mance, Montréal, QC H2X 2K5, Canada",EjQzNzEyIFJ1ZSBKZWFubmUtTWFuY2UsIE1vbnRyw6lhbCwgUUMgSDJYIDJLNSwgQ2FuYWRhIhsSGQoUChIJz9-8KjQayUwR-bmEOq-ydcwQgB0,"3712 rue Jeanne-Mance  (MTL), Montreal,Canada",45.5118668,-73.5769766,1,H2X 2K5,OK,street_address
236,RANGE_INTERPOLATED,"3716 Rue Jeanne-Mance, Montréal, QC H2X 2K5, Canada",EjQzNzE2IFJ1ZSBKZWFubmUtTWFuY2UsIE1vbnRyw6lhbCwgUUMgSDJYIDJLNSwgQ2FuYWRhIhsSGQoUChIJz9-8KjQayUwR-bmEOq-ydcwQhB0,"3716 rue Jeanne-Mance  (MTL), Montreal,Canada",45.511873,-73.57698979999999,1,H2X 2K5,OK,street_address
237,RANGE_INTERPOLATED,"3718 Rue Jeanne-Mance, Montréal, QC H2X 2K5, Canada",EjQzNzE4IFJ1ZSBKZWFubmUtTWFuY2UsIE1vbnRyw6lhbCwgUUMgSDJYIDJLNSwgQ2FuYWRhIhsSGQoUChIJz9-8KjQayUwR-bmEOq-ydcwQhh0,"3718 rue Jeanne-Mance  (MTL), Montreal,Canada",45.511876,-73.5769964,1,H2X 2K5,OK,street_address
238,ROOFTOP,"3722 Rue Jeanne-Mance, Montréal, QC H2X 2K5, Canada",ChIJpw9qgDYayUwRkoZZGtJ69T8,"3722 rue Jeanne-Mance  (MTL), Montreal,Canada",45.5119049,-73.5770232,1,H2X 2K5,OK,street_address
239,ROOFTOP,"255 Rue Léo Pariseau, Montréal, QC H2X 3V9, Canada",ChIJ_V5sfjYayUwRWNWhTwQ51E4,"255 rue Léo-Pariseau  (MTL), Montreal,Canada",45.5117283,-73.57690649999999,1,H2X 3V9,OK,street_address
240,RANGE_INTERPOLATED,"3724 Rue Jeanne-Mance, Montréal, QC H2X 2K5, Canada",EjQzNzI0IFJ1ZSBKZWFubmUtTWFuY2UsIE1vbnRyw6lhbCwgUUMgSDJYIDJLNSwgQ2FuYWRhIhsSGQoUChIJz9-8KjQayUwR-bmEOq-ydcwQjB0,"3724 rue Jeanne-Mance  (MTL), Montreal,Canada",45.5119195,-73.57709,1,H2X 2K5,OK,street_address
241,RANGE_INTERPOLATED,"3736 Rue Jeanne-Mance, Montréal, QC H2X 2K5, Canada",EjQzNzM2IFJ1ZSBKZWFubmUtTWFuY2UsIE1vbnRyw6lhbCwgUUMgSDJYIDJLNSwgQ2FuYWRhIhsSGQoUChIJz9-8KjQayUwR-bmEOq-ydcwQmB0,"3736 rue Jeanne-Mance  (MTL), Montreal,Canada",45.5120247,-73.5773165,1,H2X 2K5,OK,street_address
242,RANGE_INTERPOLATED,"3487 Rue Jeanne-Mance, Montréal, QC H2X, Canada",EiwzNDg3IFJ1ZSBKZWFubmUtTWFuY2UsIE1vbnRyw6lhbCwgUUMsIENhbmFkYSIbEhkKFAoSCelL5KNJGslMEVdcMSbUQCHzEJ8b,"3487 rue Jeanne-Mance  (MTL), Montreal,Canada",45.5103156,-73.5727721,1,H2X,OK,street_address
243,ROOFTOP,"3483 Rue Jeanne-Mance, Montréal, QC H2X 2J7, Canada",ChIJp2-ElUkayUwRWsB10X5Kbs8,"3483 rue Jeanne-Mance  (MTL), Montreal,Canada",45.5102203,-73.5726327,1,H2X 2J7,OK,street_address
244,RANGE_INTERPOLATED,"3479 Rue Jeanne-Mance, Montréal, QC H2X, Canada",EiwzNDc5IFJ1ZSBKZWFubmUtTWFuY2UsIE1vbnRyw6lhbCwgUUMsIENhbmFkYSIbEhkKFAoSCelL5KNJGslMEVdcMSbUQCHzEJcb,"3479 rue Jeanne-Mance  (MTL), Montreal,Canada",45.5101996,-73.5725253,1,H2X,OK,street_address
245,RANGE_INTERPOLATED,"3475 Rue Jeanne-Mance, Montréal, QC H2X, Canada",EiwzNDc1IFJ1ZSBKZWFubmUtTWFuY2UsIE1vbnRyw6lhbCwgUUMsIENhbmFkYSIbEhkKFAoSCelL5KNJGslMEVdcMSbUQCHzEJMb,"3475 rue Jeanne-Mance  (MTL), Montreal,Canada",45.5101673,-73.5724568,1,H2X,OK,street_address
246,ROOFTOP,"3469 Rue Jeanne-Mance, Montréal, QC H2X 2J7, Canada",ChIJ6Y0plkkayUwRki_Z3JLZTLA,"3469 rue Jeanne-Mance  (MTL), Montreal,Canada",45.510105,-73.572358,1,H2X 2J7,OK,street_address
247,ROOFTOP,"3465 Rue Jeanne-Mance, Montréal, QC H2X 2J7, Canada",ChIJiVZkvUkayUwROswYjIuCO2o,"3465 rue Jeanne-Mance  (MTL), Montreal,Canada",45.510062,-73.572288,1,H2X 2J7,OK,street_address
248,ROOFTOP,"3461 Rue Jeanne-Mance, Montréal, QC H2X 2J7, Canada",ChIJEbkwvUkayUwRG-s-rUJSOic,"3461 rue Jeanne-Mance  (MTL), Montreal,Canada",45.50998389999999,-73.5722378,1,H2X 2J7,OK,street_address
249,RANGE_INTERPOLATED,"3457 Rue Jeanne-Mance, Montréal, QC H2X, Canada",EiwzNDU3IFJ1ZSBKZWFubmUtTWFuY2UsIE1vbnRyw6lhbCwgUUMsIENhbmFkYSIbEhkKFAoSCelL5KNJGslMEVdcMSbUQCHzEIEb,"3457 rue Jeanne-Mance  (MTL), Montreal,Canada",45.5100072,-73.57211629999999,1,H2X,OK,street_address
250,RANGE_INTERPOLATED,"3451 Rue Jeanne-Mance, Montréal, QC H2X, Canada",EiwzNDUxIFJ1ZSBKZWFubmUtTWFuY2UsIE1vbnRyw6lhbCwgUUMsIENhbmFkYSIbEhkKFAoSCelL5KNJGslMEVdcMSbUQCHzEPsa,"3451 rue Jeanne-Mance  (MTL), Montreal,Canada",45.5099775,-73.572053,1,H2X,OK,street_address
251,RANGE_INTERPOLATED,"3445 Rue Jeanne-Mance, Montréal, QC H2X, Canada",EiwzNDQ1IFJ1ZSBKZWFubmUtTWFuY2UsIE1vbnRyw6lhbCwgUUMsIENhbmFkYSIbEhkKFAoSCelL5KNJGslMEVdcMSbUQCHzEPUa,"3445 rue Jeanne-Mance  (MTL), Montreal,Canada",45.5099347,-73.5719622,1,H2X,OK,street_address
252,RANGE_INTERPOLATED,"3435 Rue Jeanne-Mance, Montréal, QC H2X, Canada",EiwzNDM1IFJ1ZSBKZWFubmUtTWFuY2UsIE1vbnRyw6lhbCwgUUMsIENhbmFkYSIbEhkKFAoSCelL5KNJGslMEVdcMSbUQCHzEOsa,"3435 rue Jeanne-Mance  (MTL), Montreal,Canada",45.5098894,-73.5718656,1,H2X,OK,street_address
253,RANGE_INTERPOLATED,"3431 Rue Jeanne-Mance, Montréal, QC H2X, Canada",EiwzNDMxIFJ1ZSBKZWFubmUtTWFuY2UsIE1vbnRyw6lhbCwgUUMsIENhbmFkYSIbEhkKFAoSCelL5KNJGslMEVdcMSbUQCHzEOca,"3431 rue Jeanne-Mance  (MTL), Montreal,Canada",45.5098182,-73.5717143,1,H2X,OK,street_address
254,ROOFTOP,"3425 Rue Jeanne-Mance, Montréal, QC H2X 2J7, Canada",ChIJq91-CkkayUwR-tE69-NcHLY,"3425 rue Jeanne-Mance  (MTL), Montreal,Canada",45.509799,-73.5714469,1,H2X 2J7,OK,street_address
255,ROOFTOP,"1030 Rue Chenneville, Montréal, QC H2Z 1V8, Canada",ChIJx65IcFAayUwR3EHYFF1m1ZY,"1030 rue Chenneville  (MTL), Montreal,Canada",45.505403,-73.561651,1,H2Z 1V8,OK,street_address
256,ROOFTOP,"987 Rue Côté, Montréal, QC H2Z 1L1, Canada",ChIJ_x9eXFAayUwRtDqaTlt-gkQ,"987 rue Côté  (MTL), Montreal,Canada",45.506201,-73.56079199999999,1,H2Z 1L1,OK,street_address
257,ROOFTOP,"3420 Rue Sainte Famille, Montréal, QC H2X 2K9, Canada",ChIJAQBQdUkayUwRzQGLf0wh-ks,"3420 rue Sainte-Famille  (MTL), Montreal,Canada",45.50998149999999,-73.5713025,1,H2X 2K9,OK,street_address
258,ROOFTOP,"3424 Rue Sainte Famille, Montréal, QC H2X 2J7, Canada",ChIJk7Y6nkkayUwRw9wcckaz9uI,"3424 rue Sainte-Famille  (MTL), Montreal,Canada",45.51013870000001,-73.57131640000001,1,H2X 2J7,OK,street_address
259,ROOFTOP,"3430 Rue Sainte Famille, Montréal, QC H2X 2J7, Canada",ChIJvbFZnkkayUwRDKqb1Nsrh4U,"3430 rue Sainte-Famille  (MTL), Montreal,Canada",45.5101602,-73.5714436,1,H2X 2J7,OK,street_address
260,ROOFTOP,"3434 Rue Sainte Famille, Montréal, QC H2X 2K8, Canada",ChIJ7yvunkkayUwR0LR7d3Bod98,"3434 rue Sainte-Famille  (MTL), Montreal,Canada",45.51017299999999,-73.571505,1,H2X 2K8,OK,street_address
261,ROOFTOP,"3438 Rue Sainte Famille, Montréal, QC H2X 2J7, Canada",ChIJDZW9nkkayUwRbKHZ9S4Yoyc,"3438 rue Sainte-Famille  (MTL), Montreal,Canada",45.5102002,-73.5715471,1,H2X 2J7,OK,premise
262,ROOFTOP,"3446 Rue Sainte Famille, Montréal, QC H2X 2K8, Canada",ChIJ3d5kmUkayUwR9NUZgTicuYQ,"3446 rue Sainte-Famille  (MTL), Montreal,Canada",45.510284,-73.5717469,1,H2X 2K8,OK,street_address
263,ROOFTOP,"3450 Rue Sainte Famille, Montréal, QC H2X 2J7, Canada",ChIJr44zmkkayUwRknqVWUUItGs,"3450 rue Sainte-Famille  (MTL), Montreal,Canada",45.51037059999999,-73.5717713,1,H2X 2J7,OK,street_address
264,ROOFTOP,"3454 Rue Sainte Famille, Montréal, QC H2X 2J7, Canada",ChIJC6NNmkkayUwRxk05eCytKek,"3454 rue Sainte-Famille  (MTL), Montreal,Canada",45.5103837,-73.57182089999999,1,H2X 2J7,OK,street_address
265,ROOFTOP,"3458 Rue Sainte Famille, Montréal, QC H2X 2K8, Canada",ChIJMaeokEkayUwRNqCKbt2kMyA,"3458 rue Sainte-Famille  (MTL), Montreal,Canada",45.510383,-73.57197699999999,1,H2X 2K8,OK,street_address
266,ROOFTOP,"3462 Rue Sainte Famille, Montréal, QC H2X 2K8, Canada",ChIJdciKkEkayUwRZAjto1Znd_o,"3462 rue Sainte-Famille  (MTL), Montreal,Canada",45.5104939,-73.57199159999999,1,H2X 2K8,OK,street_address
267,ROOFTOP,"3470 Rue Sainte Famille, Montréal, QC H2X 2K8, Canada",ChIJOYvmkEkayUwR-7cKHn-PTsc,"3470 rue Sainte-Famille  (MTL), Montreal,Canada",45.5104806,-73.572167,1,H2X 2K8,OK,premise
268,ROOFTOP,"3474 Rue Sainte Famille, Montréal, QC H2X 2K8, Canada",ChIJF0llkUkayUwRM36bcCuD8DQ,"3474 rue Sainte-Famille  (MTL), Montreal,Canada",45.510499,-73.572259,1,H2X 2K8,OK,street_address
269,ROOFTOP,"3490 Rue Sainte Famille, Montréal, QC H2X 2K8, Canada",ChIJ2WxikkkayUwRmKPsCzEYJ08,"3490 rue Sainte-Famille  (MTL), Montreal,Canada",45.5106609,-73.5724156,1,H2X 2K8,OK,street_address
270,ROOFTOP,"3678 Rue Sainte Famille, Montréal, QC H2X 2L4, Canada",ChIJtzmg0DUayUwR_eG-WP3Vqms,"3678 rue Sainte-Famille  (MTL), Montreal,Canada",45.5121918,-73.5760026,1,H2X 2L4,OK,premise
271,ROOFTOP,"190 Avenue des Pins, Montréal, QC H2W 1R8, Canada",ChIJO397NjQayUwRcEJoA6EDud4,"190 avenue des Pins Ouest  (MTL), Montreal,Canada",45.5130083,-73.5766725,1,H2W 1R8,OK,street_address
272,RANGE_INTERPOLATED,"3701 Rue Sainte Famille, Montréal, QC H2X, Canada",Ei4zNzAxIFJ1ZSBTYWludGUgRmFtaWxsZSwgTW9udHLDqWFsLCBRQywgQ2FuYWRhIhsSGQoUChIJqw0V3DUayUwRVjpMCXszo8UQ9Rw,"3701 rue Sainte-Famille  (MTL), Montreal,Canada",45.5125247,-73.5762288,1,H2X,OK,street_address
273,ROOFTOP,"3697 Rue Sainte Famille, Montréal, QC H2X 2L8, Canada",ChIJi1h7zjUayUwRGHoo1xDd0E0,"3697 rue Sainte-Famille  (MTL), Montreal,Canada",45.5125903,-73.5760499,1,H2X 2L8,OK,street_address
274,ROOFTOP,"3675 Rue Sainte Famille, Montréal, QC H2X 2L5, Canada",ChIJwcdkxTUayUwR10MJaDMTruw,"3675 rue Sainte-Famille  (MTL), Montreal,Canada",45.512516,-73.57569,1,H2X 2L5,OK,street_address
275,ROOFTOP,"3655 Rue Sainte Famille, Montréal, QC H2X 2L5, Canada",ChIJXemv3DUayUwRbqkKoM92L0E,"3655 rue Sainte-Famille  (MTL), Montreal,Canada",45.512324,-73.57536999999999,1,H2X 2L5,OK,street_address
276,ROOFTOP,"5052 Av du Parc, Montréal, QC H2V 4G1, Canada",ChIJlVwzrCoayUwR0vciOon9PeI,"5052 avenue du Parc  (MTL), Montreal,Canada",45.5192939,-73.5953935,1,H2V 4G1,OK,street_address
277,ROOFTOP,"3635 Rue Sainte Famille, Montréal, QC H2X 2L5, Canada",ChIJZbhh3TUayUwRjAl-Vij5OyA,"3635 rue Sainte-Famille  (MTL), Montreal,Canada",45.512225,-73.575064,1,H2X 2L5,OK,street_address
278,ROOFTOP,"3623 Rue Sainte Famille, Montréal, QC H2X 2L5, Canada",ChIJhZys5zUayUwR9EUe3NYUXF8,"3623 rue Sainte-Famille  (MTL), Montreal,Canada",45.512157,-73.57489699999999,1,H2X 2L5,OK,street_address
279,ROOFTOP,"5024 Av du Parc, Montréal, QC H2V 4E8, Canada",ChIJfTc_sSoayUwRtGRZgUGLJYw,"5024 avenue du Parc  (MTL), Montreal,Canada",45.5190943,-73.5949594,1,H2V 4E8,OK,street_address
280,ROOFTOP,"3619 Rue Sainte Famille, Montréal, QC H2X 2L5, Canada",ChIJywLn5jUayUwRMNCEq6v8Zvk,"3619 rue Sainte-Famille  (MTL), Montreal,Canada",45.5120713,-73.57490229999999,1,H2X 2L5,OK,street_address
281,ROOFTOP,"3617 Rue Sainte Famille, Montréal, QC H2X 2L5, Canada",ChIJMazd5TUayUwRP7f6bFdv-4A,"3617 rue Sainte-Famille  (MTL), Montreal,Canada",45.5121197,-73.5747598,1,H2X 2L5,OK,premise
282,ROOFTOP,"3611 Rue Sainte Famille, Montréal, QC H2X 2L5, Canada",ChIJ4y-65TUayUwRoQExNUdx-Iw,"3611 rue Sainte-Famille  (MTL), Montreal,Canada",45.5120707,-73.57468399999999,1,H2X 2L5,OK,premise
283,ROOFTOP,"3601 Rue Sainte Famille, Montréal, QC H2X 2L6, Canada",ChIJE4qe5DUayUwRTKGzVZbPKOo,"3601 rue Sainte-Famille  (MTL), Montreal,Canada",45.511939,-73.5745139,1,H2X 2L6,OK,street_address
284,ROOFTOP,"5000 Av du Parc, Montréal, QC H2V 4E8, Canada",ChIJm-uytyoayUwRTsWaK_eEEdk,"5000 avenue du Parc  (MTL), Montreal,Canada",45.5188896,-73.5947576,1,H2V 4E8,OK,street_address
285,ROOFTOP,"3599 Rue Sainte Famille, Montréal, QC H2X 2L2, Canada",ChIJ_dv_-zUayUwROon0424IkeE,"3599 rue Sainte-Famille  (MTL), Montreal,Canada",45.5118286,-73.5741587,1,H2X 2L2,OK,premise
286,RANGE_INTERPOLATED,"4892 Av du Parc, Montréal, QC H2V 4E7, Canada",Ei40ODkyIEF2IGR1IFBhcmMsIE1vbnRyw6lhbCwgUUMgSDJWIDRFNywgQ2FuYWRhIhsSGQoUChIJS4HYzioayUwRE7bEhJazt6gQnCY,"4892 avenue du Parc  (MTL), Montreal,Canada",45.5187005,-73.5941962,1,H2V 4E7,OK,street_address
287,ROOFTOP,"3595 Rue Sainte Famille, Montréal, QC H2X 2L2, Canada",ChIJEx6P_jUayUwRYafOBY00yTg,"3595 rue Sainte-Famille  (MTL), Montreal,Canada",45.511731,-73.574027,1,H2X 2L2,OK,street_address
288,ROOFTOP,"4878 Av du Parc, Montréal, QC H2V 4E6, Canada",ChIJM0UVxSoayUwRe_Xy_pj9EZY,"4878 avenue du Parc  (MTL), Montreal,Canada",45.5186518,-73.5939902,1,H2V 4E6,OK,street_address
289,ROOFTOP,"3593 Rue Sainte Famille, Montréal, QC H2X 2L2, Canada",ChIJRaxX_jUayUwRsVkBYqJ0Ge4,"3593 rue Sainte-Famille  (MTL), Montreal,Canada",45.51168699999999,-73.573949,1,H2X 2L2,OK,street_address
290,ROOFTOP,"4872 Av du Parc, Montréal, QC H2V 4E6, Canada",ChIJRZrN2ioayUwR8G0nYiqoVYY,"4872 avenue du Parc  (MTL), Montreal,Canada",45.5185491,-73.59396079999999,1,H2V 4E6,OK,street_address
291,ROOFTOP,"3591 Rue Sainte Famille, Montréal, QC H2X 2L2, Canada",ChIJMTd2_zUayUwR0QdWKoctdLQ,"3591 rue Sainte-Famille  (MTL), Montreal,Canada",45.5116536,-73.5738693,1,H2X 2L2,OK,premise
292,ROOFTOP,"4866 Av du Parc, Montréal, QC H2V 4E6, Canada",ChIJyzjh2ioayUwRPvW6dz5v43A,"4866 avenue du Parc  (MTL), Montreal,Canada",45.5185674,-73.593808,1,H2V 4E6,OK,street_address
293,ROOFTOP,"3589 Rue Sainte Famille, Montréal, QC H2X 2L2, Canada",ChIJOX-O_zUayUwRxzaq3LfQUKs,"3589 rue Sainte-Famille  (MTL), Montreal,Canada",45.51161399999999,-73.57378299999999,1,H2X 2L2,OK,street_address
294,ROOFTOP,"3585 Rue Sainte Famille, Montréal, QC H2X 2L2, Canada",ChIJY4ptAEoayUwRjX8jFdzs1Fc,"3585 rue Sainte-Famille  (MTL), Montreal,Canada",45.5115699,-73.5737422,1,H2X 2L2,OK,premise
295,ROOFTOP,"4860 Av du Parc, Montréal, QC H2V 4E6, Canada",ChIJm3Oo2yoayUwRxkDIx70AhwY,"4860 avenue du Parc  (MTL), Montreal,Canada",45.51850719999999,-73.5937505,1,H2V 4E6,OK,street_address
296,ROOFTOP,"3581 Rue Sainte Famille, Montréal, QC H2X 2L2, Canada",ChIJoTslAEoayUwRkdKwpShvJZg,"3581 rue Sainte-Famille  (MTL), Montreal,Canada",45.511533,-73.57364199999999,1,H2X 2L2,OK,street_address
297,ROOFTOP,"4848 Av du Parc, Montréal, QC H2V 4E6, Canada",ChIJkbvZ2yoayUwR3EqspUnf_dc,"4848 avenue du Parc  (MTL), Montreal,Canada",45.5184752,-73.59358519999999,1,H2V 4E6,OK,street_address
298,ROOFTOP,"4842 Av du Parc, Montréal, QC H2V 4E6, Canada",ChIJQQgW2SoayUwRyfgqebcIMks,"4842 avenue du Parc  (MTL), Montreal,Canada",45.5184285,-73.5934637,1,H2V 4E6,OK,street_address
299,ROOFTOP,"4836 Av du Parc, Montréal, QC H2V 4E6, Canada",ChIJsyHZ2CoayUwRhSczjkVch5s,"4836 avenue du Parc  (MTL), Montreal,Canada",45.5183922,-73.5933931,1,H2V 4E6,OK,street_address
300,ROOFTOP,"3555 Rue Sainte Famille, Montréal, QC H2X 2L2, Canada",ChIJ_XhH-EkayUwRqnTtDGpmOZc,"3555 rue Sainte-Famille  (MTL), Montreal,Canada",45.51132700000001,-73.57318099999999,1,H2X 2L2,OK,street_address
301,ROOFTOP,"3549 Rue Sainte Famille, Montréal, QC H2X 2L2, Canada",ChIJT1rf-UkayUwR0Onr7WOO4FI,"3549 rue Sainte-Famille  (MTL), Montreal,Canada",45.511214,-73.5731428,1,H2X 2L2,OK,street_address
302,ROOFTOP,"4826 Av du Parc, Montréal, QC H2V 4E6, Canada",ChIJNcZUJysayUwR1U4Z7v7FQmI,"4826 avenue du Parc  (MTL), Montreal,Canada",45.5183174,-73.593223,1,H2V 4E6,OK,street_address
303,ROOFTOP,"3547 Rue Sainte Famille, Montréal, QC H2X 2L2, Canada",ChIJpyKe90kayUwR4aS8CDyD0rs,"3547 rue Sainte-Famille  (MTL), Montreal,Canada",45.511259,-73.57302899999999,1,H2X 2L2,OK,street_address
304,ROOFTOP,"4820 Av du Parc, Montréal, QC H2V 4E6, Canada",ChIJ7xjKICsayUwRlIE8m03nTfY,"4820 avenue du Parc  (MTL), Montreal,Canada",45.5182865,-73.59314909999999,1,H2V 4E6,OK,street_address
305,ROOFTOP,"4810 Av du Parc, Montréal, QC H2V 4E6, Canada",ChIJZ91qISsayUwRZ-HfduirThU,"4810 avenue du Parc  (MTL), Montreal,Canada",45.51819769999999,-73.5929918,1,H2V 4E6,OK,street_address
306,ROOFTOP,"3535 Rue Sainte Famille, Montréal, QC H2X 2L2, Canada",ChIJZziX9kkayUwR_u4PclDwwHE,"3535 rue Sainte-Famille  (MTL), Montreal,Canada",45.511165,-73.57280999999999,1,H2X 2L2,OK,street_address
307,ROOFTOP,"3525 Rue Sainte Famille, Montréal, QC H2X 2L2, Canada",ChIJU7pW9EkayUwRLLlI8wkiIV8,"3525 rue Sainte-Famille  (MTL), Montreal,Canada",45.5111783,-73.5726657,1,H2X 2L2,OK,premise
308,ROOFTOP,"3525 Rue Sainte Famille, Montréal, QC H2X 2L2, Canada",ChIJU7pW9EkayUwRLLlI8wkiIV8,"3525 rue Sainte-Famille  (MTL), Montreal,Canada",45.5111783,-73.5726657,1,H2X 2L2,OK,premise
309,RANGE_INTERPOLATED,"4610 Av du Parc, Montréal, QC H2V 4E5, Canada",Ei40NjEwIEF2IGR1IFBhcmMsIE1vbnRyw6lhbCwgUUMgSDJWIDRFNSwgQ2FuYWRhIhsSGQoUChIJCYLUQSsayUwRe8x98MVWggwQgiQ,"4610 avenue du Parc  (MTL), Montreal,Canada",45.51743279999999,-73.5913477,1,H2V 4E5,OK,street_address
310,ROOFTOP,"3525 Rue Sainte Famille, Montréal, QC H2X 2L2, Canada",ChIJU7pW9EkayUwRLLlI8wkiIV8,"3525 rue Sainte-Famille  (MTL), Montreal,Canada",45.5111783,-73.5726657,1,H2X 2L2,OK,premise
311,ROOFTOP,"3525 Rue Sainte Famille, Montréal, QC H2X 2L2, Canada",ChIJU7pW9EkayUwRLLlI8wkiIV8,"3525 rue Sainte-Famille  (MTL), Montreal,Canada",45.5111783,-73.5726657,1,H2X 2L2,OK,premise
312,ROOFTOP,"3525 Rue Sainte Famille, Montréal, QC H2X 2L2, Canada",ChIJU7pW9EkayUwRLLlI8wkiIV8,"3525 rue Sainte-Famille  (MTL), Montreal,Canada",45.5111783,-73.5726657,1,H2X 2L2,OK,premise
313,ROOFTOP,"3525 Rue Sainte Famille, Montréal, QC H2X 2L2, Canada",ChIJU7pW9EkayUwRLLlI8wkiIV8,"3525 rue Sainte-Famille  (MTL), Montreal,Canada",45.5111783,-73.5726657,1,H2X 2L2,OK,premise
314,ROOFTOP,"4544 Av du Parc, Montréal, QC H2V 4E3, Canada",ChIJGbwnnSwayUwRIAsAwcjxYFM,"4544 avenue du Parc  (MTL), Montreal,Canada",45.5170417,-73.59044190000002,1,H2V 4E3,OK,street_address
315,ROOFTOP,"3525 Rue Sainte Famille, Montréal, QC H2X 2L2, Canada",ChIJU7pW9EkayUwRLLlI8wkiIV8,"3525 rue Sainte-Famille  (MTL), Montreal,Canada",45.5111783,-73.5726657,1,H2X 2L2,OK,premise
316,ROOFTOP,"3525 Rue Sainte Famille, Montréal, QC H2X 2L2, Canada",ChIJU7pW9EkayUwRLLlI8wkiIV8,"3525 rue Sainte-Famille  (MTL), Montreal,Canada",45.5111783,-73.5726657,1,H2X 2L2,OK,premise
317,ROOFTOP,"3515 Rue Sainte Famille, Montréal, QC H2X 2L2, Canada",ChIJ-2bB9EkayUwROkugQQ-FkC0,"3515 rue Sainte-Famille  (MTL), Montreal,Canada",45.5110874,-73.5725622,1,H2X 2L2,OK,premise
318,ROOFTOP,"3515 Rue Sainte Famille, Montréal, QC H2X 2L2, Canada",ChIJ-2bB9EkayUwROkugQQ-FkC0,"3515 rue Sainte-Famille  (MTL), Montreal,Canada",45.5110874,-73.5725622,1,H2X 2L2,OK,premise
319,ROOFTOP,"4505 Av du Parc, Montréal, QC H2V 4E4, Canada",ChIJ02slkSwayUwR63mtQ7ow1tg,"4505 avenue du Parc  (MTL), Montreal,Canada",45.517121,-73.589505,1,H2V 4E4,OK,street_address
320,ROOFTOP,"3515 Rue Sainte Famille, Montréal, QC H2X 2L2, Canada",ChIJ-2bB9EkayUwROkugQQ-FkC0,"3515 rue Sainte-Famille  (MTL), Montreal,Canada",45.5110874,-73.5725622,1,H2X 2L2,OK,premise
321,ROOFTOP,"3515 Rue Sainte Famille, Montréal, QC H2X 2L2, Canada",ChIJ-2bB9EkayUwROkugQQ-FkC0,"3515 rue Sainte-Famille  (MTL), Montreal,Canada",45.5110874,-73.5725622,1,H2X 2L2,OK,premise
322,ROOFTOP,"3515 Rue Sainte Famille, Montréal, QC H2X 2L2, Canada",ChIJ-2bB9EkayUwROkugQQ-FkC0,"3515 rue Sainte-Famille  (MTL), Montreal,Canada",45.5110874,-73.5725622,1,H2X 2L2,OK,premise
323,ROOFTOP,"4531 Av du Parc, Montréal, QC H2V 4E4, Canada",ChIJP_lhmSwayUwRdS0VrHbGrEI,"4531 avenue du Parc  (MTL), Montreal,Canada",45.51723399999999,-73.5899817,1,H2V 4E4,OK,street_address
324,ROOFTOP,"3515 Rue Sainte Famille, Montréal, QC H2X 2L2, Canada",ChIJ-2bB9EkayUwROkugQQ-FkC0,"3515 rue Sainte-Famille  (MTL), Montreal,Canada",45.5110874,-73.5725622,1,H2X 2L2,OK,premise
325,ROOFTOP,"3515 Rue Sainte Famille, Montréal, QC H2X 2L2, Canada",ChIJ-2bB9EkayUwROkugQQ-FkC0,"3515 rue Sainte-Famille  (MTL), Montreal,Canada",45.5110874,-73.5725622,1,H2X 2L2,OK,premise
326,ROOFTOP,"3515 Rue Sainte Famille, Montréal, QC H2X 2L2, Canada",ChIJ-2bB9EkayUwROkugQQ-FkC0,"3515 rue Sainte-Famille  (MTL), Montreal,Canada",45.5110874,-73.5725622,1,H2X 2L2,OK,premise
327,ROOFTOP,"4555 Av du Parc, Montréal, QC H2V 4E4, Canada",ChIJuQEckiwayUwRo8TrN7YHodA,"4555 avenue du Parc  (MTL), Montreal,Canada",45.5174369,-73.5902364,1,H2V 4E4,OK,street_address
328,ROOFTOP,"3505 Rue Sainte Famille, Montréal, QC H2X 2L2, Canada",ChIJb02gjEkayUwR1bCE_OwT-So,"3505 rue Sainte-Famille  (MTL), Montreal,Canada",45.5109946,-73.5723373,1,H2X 2L2,OK,street_address
329,ROOFTOP,"3463 Rue Sainte Famille, Montréal, QC B4 7XG, Canada",ChIJsbP6mkkayUwR68s3USp8UqQ,"3463 rue Sainte-Famille  (MTL), Montreal,Canada",45.5108588,-73.5719996,1,B4 7XG,OK,street_address
330,ROOFTOP,"3457 Rue Sainte Famille, Montréal, QC H2X 2K6, Canada",ChIJ7dUzhEkayUwRa8vfRmas2m4,"3457 rue Sainte-Famille  (MTL), Montreal,Canada",45.51059859999999,-73.5716736,1,H2X 2K6,OK,street_address
331,ROOFTOP,"3455 Rue Sainte Famille, Montréal, QC H2X 2K6, Canada",ChIJw4dLhEkayUwRyk34YIqEBPE,"3455 rue Sainte-Famille  (MTL), Montreal,Canada",45.510785,-73.57149299999999,1,H2X 2K6,OK,street_address
332,ROOFTOP,"3453 Rue Sainte Famille, Montréal, QC H2X 2K6, Canada",ChIJCVJThEkayUwRGYP4pHRFiaY,"3453 rue Sainte-Famille  (MTL), Montreal,Canada",45.510754,-73.57152599999999,1,H2X 2K6,OK,street_address
333,ROOFTOP,"3451 Rue Sainte Famille, Montréal, QC H2X 2K6, Canada",ChIJm7EBhUkayUwRG4PXeSCDz6Q,"3451 rue Sainte-Famille  (MTL), Montreal,Canada",45.510726,-73.571553,1,H2X 2K6,OK,street_address
334,RANGE_INTERPOLATED,"4611 Av du Parc, Montréal, QC H2V 4E4, Canada",Ei40NjExIEF2IGR1IFBhcmMsIE1vbnRyw6lhbCwgUUMgSDJWIDRFNCwgQ2FuYWRhIhsSGQoUChIJCYLUQSsayUwResx98MVWggwQgyQ,"4611 avenue du Parc  (MTL), Montreal,Canada",45.5177412,-73.5910498,1,H2V 4E4,OK,street_address
335,ROOFTOP,"3449 Rue Sainte Famille, Montréal, QC H2X 2K6, Canada",ChIJpfrBhEkayUwRuiipHUVPTrQ,"3449 rue Sainte-Famille  (MTL), Montreal,Canada",45.510652,-73.571506,1,H2X 2K6,OK,street_address
336,RANGE_INTERPOLATED,"4617 Av du Parc, Montréal, QC H2V 4E4, Canada",Ei40NjE3IEF2IGR1IFBhcmMsIE1vbnRyw6lhbCwgUUMgSDJWIDRFNCwgQ2FuYWRhIhsSGQoUChIJCYLUQSsayUwResx98MVWggwQiSQ,"4617 avenue du Parc  (MTL), Montreal,Canada",45.5177707,-73.5911173,1,H2V 4E4,OK,street_address
337,ROOFTOP,"3447 Rue Sainte Famille, Montréal, QC H2X 2K6, Canada",ChIJsxO8hEkayUwRgqTVuIhaG8s,"3447 rue Sainte-Famille  (MTL), Montreal,Canada",45.510632,-73.571463,1,H2X 2K6,OK,street_address
338,ROOFTOP,"3445 Rue Sainte Famille, Montréal, QC H2X 2K6, Canada",ChIJYTU0hUkayUwRZJDgjwDsw7g,"3445 rue Sainte-Famille  (MTL), Montreal,Canada",45.510621,-73.571697,1,H2X 2K6,OK,street_address
339,ROOFTOP,"3443 Rue Sainte Famille, Montréal, QC H2X 2K6, Canada",ChIJBf_ZmkkayUwRitVMWyk-BPM,"3443 rue Sainte-Famille  (MTL), Montreal,Canada",45.5105636,-73.57166520000001,1,H2X 2K6,OK,street_address
340,ROOFTOP,"4635 Av du Parc, Montréal, QC H2V 4E4, Canada",ChIJKQMoQisayUwRJ-Qm-GXJaJ8,"4635 avenue du Parc  (MTL), Montreal,Canada",45.5178619,-73.59141559999999,1,H2V 4E4,OK,street_address
341,ROOFTOP,"3441 Rue Sainte Famille, Montréal, QC H2X 2K6, Canada",ChIJGXYrm0kayUwRUGpvVUqZrNw,"3441 rue Sainte-Famille  (MTL), Montreal,Canada",45.510584,-73.571606,1,H2X 2K6,OK,street_address
342,ROOFTOP,"3439 Rue Sainte Famille, Montréal, QC H2X 2K6, Canada",ChIJ0UU2m0kayUwRuj8pkHuqKTM,"3439 rue Sainte-Famille  (MTL), Montreal,Canada",45.510559,-73.571546,1,H2X 2K6,OK,street_address
343,ROOFTOP,"4651 Av du Parc, Montréal, QC H2V 4E4, Canada",ChIJvT74QCsayUwR6NSdXnH3tmw,"4651 avenue du Parc  (MTL), Montreal,Canada",45.5179347,-73.5916301,1,H2V 4E4,OK,street_address
344,ROOFTOP,"3437 Rue Sainte Famille, Montréal, QC H2X 2K6, Canada",ChIJu_aunEkayUwR66xn81g4wIs,"3437 rue Sainte-Famille  (MTL), Montreal,Canada",45.510539,-73.5714069,1,H2X 2K6,OK,street_address
345,RANGE_INTERPOLATED,"3435 Rue Sainte Famille, Montréal, QC H2X, Canada",Ei4zNDM1IFJ1ZSBTYWludGUgRmFtaWxsZSwgTW9udHLDqWFsLCBRQywgQ2FuYWRhIhsSGQoUChIJ8SGGmkkayUwRgbFFk1_QXZQQ6xo,"3435 rue Sainte-Famille  (MTL), Montreal,Canada",45.5105482,-73.57139819999999,1,H2X,OK,street_address
346,ROOFTOP,"4669 Av du Parc, Montréal, QC H2V 4E4, Canada",ChIJn3fYPisayUwRXaZuiTZq8Dk,"4669 avenue du Parc  (MTL), Montreal,Canada",45.518078,-73.59191799999999,1,H2V 4E4,OK,street_address
347,RANGE_INTERPOLATED,"3433 Rue Sainte Famille, Montréal, QC H2X, Canada",Ei4zNDMzIFJ1ZSBTYWludGUgRmFtaWxsZSwgTW9udHLDqWFsLCBRQywgQ2FuYWRhIhsSGQoUChIJ8SGGmkkayUwRgbFFk1_QXZQQ6Ro,"3433 rue Sainte-Famille  (MTL), Montreal,Canada",45.5105482,-73.57139819999999,1,H2X,OK,street_address
348,ROOFTOP,"3431 Rue Sainte Famille, Montréal, QC H2X 2K6, Canada",ChIJu_aunEkayUwRbTpD6RWWxCg,"3431 rue Sainte-Famille  (MTL), Montreal,Canada",45.510539,-73.5714069,1,H2X 2K6,OK,street_address
349,ROOFTOP,"3429 Rue Sainte Famille, Montréal, QC H2X 2K6, Canada",ChIJsUPBnEkayUwRKe6oVUmLbaY,"3429 rue Sainte-Famille  (MTL), Montreal,Canada",45.5104941,-73.5713447,1,H2X 2K6,OK,street_address
350,ROOFTOP,"3417 Rue Sainte Famille, Montréal, QC H2X 2K6, Canada",ChIJ30dunUkayUwRsfzQtgOSUCM,"3417 rue Sainte-Famille  (MTL), Montreal,Canada",45.51042,-73.57116490000001,1,H2X 2K6,OK,street_address
351,ROOFTOP,"990 Rue Saint-Urbain, Montréal, QC H2Z 1K6, Canada",ChIJnaogWFAayUwR7j56eMv-wf4,"990 rue Saint-Urbain  (MTL), Montreal,Canada",45.50641090000001,-73.5601642,1,H2Z 1K6,OK,street_address
352,ROOFTOP,"1002 Rue Saint-Urbain, Montréal, QC H2Z 1K6, Canada",ChIJQ-CYUFAayUwR7Lt7jeyFGxo,"1002 rue Saint-Urbain  (MTL), Montreal,Canada",45.506561,-73.560507,1,H2Z 1K6,OK,street_address
353,ROOFTOP,"1100 Rue Saint-Urbain, Montréal, QC H2Z 1Y2, Canada",ChIJ8w2HSVAayUwRHeRCeD_vtYQ,"1100 rue Saint-Urbain  (MTL), Montreal,Canada",45.5069431,-73.56124750000001,1,H2Z 1Y2,OK,street_address
354,ROOFTOP,"3530 Rue Saint-Urbain, Montréal, QC H2X 2N8, Canada",ChIJK1thF0oayUwR_lKvM3pUjh8,"3530 rue Saint-Urbain  (MTL), Montreal,Canada",45.5119048,-73.57218680000001,1,H2X 2N8,OK,street_address
355,ROOFTOP,"3614 Rue Saint-Urbain, Montréal, QC H2X 2P3, Canada",ChIJGSut7DUayUwRO94X7Jdhabo,"3614 rue Saint-Urbain  (MTL), Montreal,Canada",45.512799,-73.5742597,1,H2X 2P3,OK,street_address
356,ROOFTOP,"3626 Rue Saint-Urbain, Montréal, QC H2X 2P2, Canada",ChIJGQ7M6jUayUwRDxh382SImDY,"3626 rue Saint-Urbain  (MTL), Montreal,Canada",45.512829,-73.574567,1,H2X 2P2,OK,street_address
357,ROOFTOP,"4878 Rue Jeanne-Mance, Montréal, QC H2V 4J7, Canada",ChIJgba9LNUbyUwRYPbLHjDzthI,"4878 rue Jeanne-Mance  (MTL), Montreal,Canada",45.519281,-73.593164,1,H2V 4J7,OK,street_address
358,ROOFTOP,"4872 Rue Jeanne-Mance, Montréal, QC H2V 4J7, Canada",ChIJ2Q5bK9UbyUwRCJESOFguKGc,"4872 rue Jeanne-Mance  (MTL), Montreal,Canada",45.51925,-73.59307,1,H2V 4J7,OK,street_address
359,ROOFTOP,"4866 Rue Jeanne-Mance, Montréal, QC H2V 4J7, Canada",ChIJI5oxK9UbyUwRPkgwvfURx0M,"4866 rue Jeanne-Mance  (MTL), Montreal,Canada",45.51921,-73.5929879,1,H2V 4J7,OK,street_address
360,ROOFTOP,"3677 Rue Saint-Urbain, Montréal, QC H2X 2N9, Canada",ChIJJ0lxrjUayUwRVMZGybb7JNM,"3677 rue Saint-Urbain  (MTL), Montreal,Canada",45.513675,-73.5754299,1,H2X 2N9,OK,street_address
361,ROOFTOP,"4860 Rue Jeanne-Mance, Montréal, QC H2V 4J7, Canada",ChIJu-fSKtUbyUwRDe-ENEZmc1g,"4860 rue Jeanne-Mance  (MTL), Montreal,Canada",45.51918,-73.592901,1,H2V 4J7,OK,street_address
362,ROOFTOP,"3673 Rue Saint-Urbain, Montréal, QC H2X 2N9, Canada",ChIJsz0jrjUayUwRfa4jyyHKlpU,"3673 rue Saint-Urbain  (MTL), Montreal,Canada",45.5136029,-73.57537889999999,1,H2X 2N9,OK,street_address
363,ROOFTOP,"4854 Rue Jeanne-Mance, Montréal, QC H2V 4J7, Canada",ChIJdY9O1SoayUwRND3RgEX08Q4,"4854 rue Jeanne-Mance  (MTL), Montreal,Canada",45.519142,-73.5928239,1,H2V 4J7,OK,street_address
364,ROOFTOP,"3669 Rue Saint-Urbain, Montréal, QC H2X 2N9, Canada",ChIJp5TXrzUayUwRhlYEZH9_R6U,"3669 rue Saint-Urbain  (MTL), Montreal,Canada",45.5135923,-73.5752216,1,H2X 2N9,OK,street_address
365,ROOFTOP,"4848 Rue Jeanne-Mance, Montréal, QC H2V 4J7, Canada",ChIJFxGmKisayUwR9FZnRSPN_yk,"4848 rue Jeanne-Mance  (MTL), Montreal,Canada",45.519112,-73.59275199999999,1,H2V 4J7,OK,street_address
366,ROOFTOP,"3665 Rue Saint-Urbain, Montréal, QC H2X 2N9, Canada",ChIJ31r8rzUayUwRszd7FMZPxQg,"3665 rue Saint-Urbain  (MTL), Montreal,Canada",45.5135516,-73.5751165,1,H2X 2N9,OK,street_address
367,ROOFTOP,"3641 Rue Saint-Urbain, Montréal, QC H2X 2N9, Canada",ChIJZ4muvTUayUwRwIuabi7dQyk,"3641 rue Saint-Urbain  (MTL), Montreal,Canada",45.5132779,-73.5746148,1,H2X 2N9,OK,street_address
368,RANGE_INTERPOLATED,"4814 Rue Jeanne-Mance, Montréal, QC H2V 4J7, Canada",EjQ0ODE0IFJ1ZSBKZWFubmUtTWFuY2UsIE1vbnRyw6lhbCwgUUMgSDJWIDRKNywgQ2FuYWRhIhsSGQoUChIJl6B-KtUbyUwRsbo1zPBvZwQQziU,"4814 rue Jeanne-Mance  (MTL), Montreal,Canada",45.51910410000001,-73.5922291,1,H2V 4J7,OK,street_address
369,ROOFTOP,"3637 Rue Saint-Urbain, Montréal, QC H2X 2N9, Canada",ChIJcSCfvTUayUwRs5iZPngxXtQ,"3637 rue Saint-Urbain  (MTL), Montreal,Canada",45.51327800000001,-73.574528,1,H2X 2N9,OK,street_address
370,ROOFTOP,"3633 Rue Saint-Urbain, Montréal, QC H2X 2N9, Canada",ChIJKdQnljUayUwRotQWLyfYzR0,"3633 rue Saint-Urbain  (MTL), Montreal,Canada",45.513242,-73.574446,1,H2X 2N9,OK,street_address
371,ROOFTOP,"4698 Rue Jeanne-Mance, Montréal, QC H2V 4J4, Canada",ChIJVRIZSSsayUwRfk1Nec9FrcE,"4698 rue Jeanne-Mance  (MTL), Montreal,Canada",45.5184916,-73.5911689,1,H2V 4J4,OK,street_address
372,ROOFTOP,"3629 Rue Saint-Urbain, Montréal, QC H2X 2N9, Canada",ChIJXxESljUayUwRtak-7bUpLFs,"3629 rue Saint-Urbain  (MTL), Montreal,Canada",45.51316629999999,-73.57441870000001,1,H2X 2N9,OK,street_address
373,ROOFTOP,"4692 Rue Jeanne-Mance, Montréal, QC H2V 4J4, Canada",ChIJTXMmSSsayUwRA06wvIYqF0k,"4692 rue Jeanne-Mance  (MTL), Montreal,Canada",45.5184755,-73.5911139,1,H2V 4J4,OK,street_address
374,ROOFTOP,"4686 Rue Jeanne-Mance, Montréal, QC H2V 4J4, Canada",ChIJyVU7TysayUwRSwOJyL7bupI,"4686 rue Jeanne-Mance  (MTL), Montreal,Canada",45.5184053,-73.5910184,1,H2V 4J4,OK,street_address
375,ROOFTOP,"3623 Rue Saint-Urbain, Montréal, QC H2X 2N9, Canada",ChIJ80wnlDUayUwRWfJKs970ZXg,"3623 rue Saint-Urbain  (MTL), Montreal,Canada",45.5130979,-73.5742552,1,H2X 2N9,OK,street_address
376,ROOFTOP,"4680 Rue Jeanne-Mance, Montréal, QC H2V 4J4, Canada",ChIJA0UUTysayUwR3wq2GimkSiM,"4680 rue Jeanne-Mance  (MTL), Montreal,Canada",45.5183767,-73.5909913,2,H2V 4J4,OK,street_address
377,ROOFTOP,"3621 Rue Saint-Urbain, Montréal, QC H2X 2N9, Canada",ChIJpTMhlDUayUwR1AL4E_xa8Gw,"3621 rue Saint-Urbain  (MTL), Montreal,Canada",45.51308909999999,-73.5742587,1,H2X 2N9,OK,street_address
378,ROOFTOP,"4674 Rue Jeanne-Mance, Montréal, QC H2V 4J4, Canada",ChIJEwKFTysayUwRVqSjFfutDoY,"4674 rue Jeanne-Mance  (MTL), Montreal,Canada",45.518306,-73.590906,1,H2V 4J4,OK,street_address
379,ROOFTOP,"3619 Rue Saint-Urbain, Montréal, QC H2X 2N9, Canada",ChIJSfL3kzUayUwR2EOxUuueiy4,"3619 rue Saint-Urbain  (MTL), Montreal,Canada",45.5130458,-73.57414899999999,1,H2X 2N9,OK,street_address
380,ROOFTOP,"4668 Rue Jeanne-Mance, Montréal, QC H2V 4J4, Canada",ChIJyTf2TysayUwRd-x-fHqqs_0,"4668 rue Jeanne-Mance  (MTL), Montreal,Canada",45.5182689,-73.59082599999999,1,H2V 4J4,OK,street_address
381,ROOFTOP,"3617 Rue Saint-Urbain, Montréal, QC H2X 2N9, Canada",ChIJffXxkzUayUwRguLjSO0p11g,"3617 rue Saint-Urbain  (MTL), Montreal,Canada",45.5130246,-73.5741204,1,H2X 2N9,OK,street_address
382,ROOFTOP,"4662 Rue Jeanne-Mance, Montréal, QC H2V 4J4, Canada",ChIJ3SapWisayUwRrSS7u6sAj_8,"4662 rue Jeanne-Mance  (MTL), Montreal,Canada",45.51823599999999,-73.590739,1,H2V 4J4,OK,street_address
383,ROOFTOP,"3615 Rue Saint-Urbain, Montréal, QC H2X 2N9, Canada",ChIJf7KHkTUayUwRcFuR-EvUOaw,"3615 rue Saint-Urbain  (MTL), Montreal,Canada",45.5130375,-73.5740009,1,H2X 2N9,OK,premise
384,ROOFTOP,"4656 Rue Jeanne-Mance, Montréal, QC H2V 4J4, Canada",ChIJM5-QWisayUwRX-ftAf4FEoM,"4656 rue Jeanne-Mance  (MTL), Montreal,Canada",45.518201,-73.59066,1,H2V 4J4,OK,street_address
385,ROOFTOP,"3611 Rue Saint-Urbain, Montréal, QC H2X 2N9, Canada",ChIJdd3BljUayUwRro9GHQWLJFU,"3611 rue Saint-Urbain  (MTL), Montreal,Canada",45.5130024,-73.5738908,1,H2X 2N9,OK,premise
386,ROOFTOP,"4650 Rue Jeanne-Mance, Montréal, QC H2V 4J4, Canada",ChIJAQ1mWisayUwR1xbBwmrUhNw,"4650 rue Jeanne-Mance  (MTL), Montreal,Canada",45.518167,-73.59056199999999,1,H2V 4J4,OK,street_address
387,ROOFTOP,"4636 Rue Jeanne-Mance, Montréal, QC H2V 4J4, Canada",ChIJ-b5_WSsayUwRVB5LmouhyWM,"4636 rue Jeanne-Mance  (MTL), Montreal,Canada",45.5180537,-73.5904585,1,H2V 4J4,OK,street_address
388,ROOFTOP,"3611 Rue Saint-Urbain, Montréal, QC H2X 2N9, Canada",ChIJdd3BljUayUwRro9GHQWLJFU,"3611 rue Saint-Urbain  (MTL), Montreal,Canada",45.5130024,-73.5738908,1,H2X 2N9,OK,premise
389,ROOFTOP,"4630 Rue Jeanne-Mance, Montréal, QC H2V 4J4, Canada",ChIJM3HHWSsayUwRnIvABEEIUP4,"4630 rue Jeanne-Mance  (MTL), Montreal,Canada",45.5181128,-73.5902888,1,H2V 4J4,OK,street_address
390,ROOFTOP,"3611 Rue Saint-Urbain, Montréal, QC H2X 2N9, Canada",ChIJdd3BljUayUwRro9GHQWLJFU,"3611 rue Saint-Urbain  (MTL), Montreal,Canada",45.5130024,-73.5738908,1,H2X 2N9,OK,premise
391,ROOFTOP,"4624 Rue Jeanne-Mance, Montréal, QC H2V 4J4, Canada",ChIJsW7mWCsayUwReWEknFJX1-c,"4624 rue Jeanne-Mance  (MTL), Montreal,Canada",45.51797,-73.590262,1,H2V 4J4,OK,street_address
392,ROOFTOP,"3611 Rue Saint-Urbain, Montréal, QC H2X 2N9, Canada",ChIJdd3BljUayUwRro9GHQWLJFU,"3611 rue Saint-Urbain  (MTL), Montreal,Canada",45.5130024,-73.5738908,1,H2X 2N9,OK,premise
393,ROOFTOP,"4618 Rue Jeanne-Mance, Montréal, QC H2V 4J4, Canada",ChIJy9a_WCsayUwRRTDkmN0W5fg,"4618 rue Jeanne-Mance  (MTL), Montreal,Canada",45.517945,-73.590205,1,H2V 4J4,OK,street_address
394,ROOFTOP,"3611 Rue Saint-Urbain, Montréal, QC H2X 2N9, Canada",ChIJdd3BljUayUwRro9GHQWLJFU,"3611 rue Saint-Urbain  (MTL), Montreal,Canada",45.5130024,-73.5738908,1,H2X 2N9,OK,premise
395,ROOFTOP,"4606 Rue Jeanne-Mance, Montréal, QC H2V 4J4, Canada",ChIJ_zxIpywayUwRNHLw_CgwvVs,"4606 rue Jeanne-Mance  (MTL), Montreal,Canada",45.51788,-73.590049,2,H2V 4J4,OK,street_address
396,ROOFTOP,"3611 Rue Saint-Urbain, Montréal, QC H2X 2N9, Canada",ChIJdd3BljUayUwRro9GHQWLJFU,"3611 rue Saint-Urbain  (MTL), Montreal,Canada",45.5130024,-73.5738908,1,H2X 2N9,OK,premise
397,ROOFTOP,"4600 Rue Jeanne-Mance, Montréal, QC H2V 4J4, Canada",ChIJ550toSwayUwR2uLDD4EGMPs,"4600 rue Jeanne-Mance  (MTL), Montreal,Canada",45.51782,-73.589928,2,H2V 4J4,OK,street_address
398,ROOFTOP,"3611 Rue Saint-Urbain, Montréal, QC H2X 2N9, Canada",ChIJdd3BljUayUwRro9GHQWLJFU,"3611 rue Saint-Urbain  (MTL), Montreal,Canada",45.5130024,-73.5738908,1,H2X 2N9,OK,premise
399,ROOFTOP,"4594 Rue Jeanne-Mance, Montréal, QC H2V 4J4, Canada",ChIJ87i9piwayUwRJzjRNgsqgNA,"4594 rue Jeanne-Mance  (MTL), Montreal,Canada",45.5178804,-73.5898021,1,H2V 4J4,OK,street_address
400,ROOFTOP,"3611 Rue Saint-Urbain, Montréal, QC H2X 2N9, Canada",ChIJdd3BljUayUwRro9GHQWLJFU,"3611 rue Saint-Urbain  (MTL), Montreal,Canada",45.5130024,-73.5738908,1,H2X 2N9,OK,premise
401,ROOFTOP,"3605 Rue Saint-Urbain, Montréal, QC H2X 2P1, Canada",ChIJRZYSjTUayUwRCeT2Cd_cBVk,"3605 rue Saint-Urbain  (MTL), Montreal,Canada",45.5128944,-73.57370420000001,1,H2X 2P1,OK,street_address
402,ROOFTOP,"3595 Rue Saint-Urbain, Montréal, QC H2X 2N6, Canada",ChIJV45M9TUayUwRnmtrL3NT0qs,"3595 rue Saint-Urbain  (MTL), Montreal,Canada",45.5126374,-73.57321309999999,1,H2X 2N6,OK,street_address
403,ROOFTOP,"4576 Rue Jeanne-Mance, Montréal, QC H2V 4J4, Canada",ChIJi8JioywayUwROPhjLjn8r4s,"4576 rue Jeanne-Mance  (MTL), Montreal,Canada",45.5177647,-73.5895309,1,H2V 4J4,OK,street_address
404,ROOFTOP,"3585 Rue Saint-Urbain, Montréal, QC H2X 2N6, Canada",ChIJ8b70dEoayUwRrRhKoBLCe9g,"3585 rue Saint-Urbain  (MTL), Montreal,Canada",45.5127032,-73.5728382,1,H2X 2N6,OK,premise
405,ROOFTOP,"4570 Rue Jeanne-Mance, Montréal, QC H2V 4J4, Canada",ChIJyVFNoywayUwRoyWQF6kxwh4,"4570 rue Jeanne-Mance  (MTL), Montreal,Canada",45.5177139,-73.58941229999999,1,H2V 4J4,OK,street_address
406,ROOFTOP,"4564 Rue Jeanne-Mance, Montréal, QC H2V 4J4, Canada",ChIJ_bQqoywayUwRroce0Y-sNks,"4564 rue Jeanne-Mance  (MTL), Montreal,Canada",45.517615,-73.5894689,1,H2V 4J4,OK,street_address
407,ROOFTOP,"4565 Rue Jeanne-Mance, Montréal, QC H2V 4J5, Canada",ChIJtfeTuiwayUwRZ6oe_DKVBXM,"4565 rue Jeanne-Mance  (MTL), Montreal,Canada",45.517956,-73.589136,1,H2V 4J5,OK,street_address
408,ROOFTOP,"3545 Rue Saint-Urbain, Montréal, QC H2X 2N6, Canada",ChIJ63whFEoayUwR_mHgpsIIDgU,"3545 rue Saint-Urbain  (MTL), Montreal,Canada",45.512186,-73.572028,1,H2X 2N6,OK,street_address
409,ROOFTOP,"4571 Rue Jeanne-Mance, Montréal, QC H2V 4J5, Canada",ChIJM42tuiwayUwRk5nKNw1s2yQ,"4571 rue Jeanne-Mance  (MTL), Montreal,Canada",45.517993,-73.589226,1,H2V 4J5,OK,street_address
410,ROOFTOP,"4583 Rue Jeanne-Mance, Montréal, QC H2V 4J5, Canada",ChIJW7eGrywayUwRhqR5MucTPLY,"4583 rue Jeanne-Mance  (MTL), Montreal,Canada",45.51806699999999,-73.589382,1,H2V 4J5,OK,street_address
411,ROOFTOP,"3539 Rue Saint-Urbain, Montréal, QC H2X 2N6, Canada",ChIJHRATFkoayUwRhLC9tvzQddY,"3539 rue Saint-Urbain  (MTL), Montreal,Canada",45.5121175,-73.57199419999999,1,H2X 2N6,OK,street_address
412,ROOFTOP,"4595 Rue Jeanne-Mance, Montréal, QC H2V 4J5, Canada",ChIJ9dhLrywayUwRMeQltIoRrtM,"4595 rue Jeanne-Mance  (MTL), Montreal,Canada",45.51814,-73.589552,1,H2V 4J5,OK,street_address
413,ROOFTOP,"4601 Rue Jeanne-Mance, Montréal, QC H2V 4J5, Canada",ChIJcSLHqCwayUwRz_Qcmt8kNb8,"4601 rue Jeanne-Mance  (MTL), Montreal,Canada",45.518172,-73.589631,1,H2V 4J5,OK,street_address
414,ROOFTOP,"4607 Rue Jeanne-Mance, Montréal, QC H2V 4J5, Canada",ChIJRWj3qCwayUwRvYgpi3SucFQ,"4607 rue Jeanne-Mance  (MTL), Montreal,Canada",45.518213,-73.589725,1,H2V 4J5,OK,street_address
415,ROOFTOP,"4615 Rue Jeanne-Mance, Montréal, QC H2V 4J5, Canada",ChIJAcM9qCwayUwRDD9V5q_nJuM,"4615 rue Jeanne-Mance  (MTL), Montreal,Canada",45.5182065,-73.5898828,1,H2V 4J5,OK,street_address
416,ROOFTOP,"4619 Rue Jeanne-Mance, Montréal, QC H2V 4J5, Canada",ChIJ040hqCwayUwRUJd69Oi-mNo,"4619 rue Jeanne-Mance  (MTL), Montreal,Canada",45.5182138,-73.5899293,1,H2V 4J5,OK,street_address
417,ROOFTOP,"4625 Rue Jeanne-Mance, Montréal, QC H2V 4J5, Canada",ChIJWy4xVisayUwRbu-0DdIr3Is,"4625 rue Jeanne-Mance  (MTL), Montreal,Canada",45.518316,-73.58996909999999,1,H2V 4J5,OK,street_address
418,ROOFTOP,"4631 Rue Jeanne-Mance, Montréal, QC H2V 4J5, Canada",ChIJJZlkVisayUwR7zs8MRYV_24,"4631 rue Jeanne-Mance  (MTL), Montreal,Canada",45.5184052,-73.59002149999999,1,H2V 4J5,OK,street_address
419,ROOFTOP,"4637 Rue Jeanne-Mance, Montréal, QC H2V 4J5, Canada",ChIJdZPdVisayUwRcS_H1uRwNj0,"4637 rue Jeanne-Mance  (MTL), Montreal,Canada",45.5183467,-73.5901933,1,H2V 4J5,OK,street_address
420,ROOFTOP,"4643 Rue Jeanne-Mance, Montréal, QC H2V 4J5, Canada",ChIJj2ixVisayUwRgII1sn4ZUQM,"4643 rue Jeanne-Mance  (MTL), Montreal,Canada",45.518426,-73.590217,1,H2V 4J5,OK,street_address
421,ROOFTOP,"3475 Rue Saint-Urbain, Montréal, QC H2X 2N4, Canada",ChIJ7zYyMEoayUwRL_Yl2lJHoaE,"3475 rue Saint-Urbain  (MTL), Montreal,Canada",45.5117408,-73.5709462,1,H2X 2N4,OK,premise
422,ROOFTOP,"4649 Rue Jeanne-Mance, Montréal, QC H2V 4J5, Canada",ChIJB3NcUSsayUwR3PHct-krFxo,"4649 rue Jeanne-Mance  (MTL), Montreal,Canada",45.5184659,-73.590304,1,H2V 4J5,OK,street_address
423,ROOFTOP,"4655 Rue Jeanne-Mance, Montréal, QC H2V 4J5, Canada",ChIJf-TVUysayUwREHouzBIn8zA,"4655 rue Jeanne-Mance  (MTL), Montreal,Canada",45.518505,-73.590385,1,H2V 4J5,OK,street_address
424,ROOFTOP,"4661 Rue Jeanne-Mance, Montréal, QC H2V 4J5, Canada",ChIJ94wkUisayUwR-mjhJKSbbbM,"4661 rue Jeanne-Mance  (MTL), Montreal,Canada",45.518543,-73.5904599,2,H2V 4J5,OK,street_address
425,ROOFTOP,"4667 Rue Jeanne-Mance, Montréal, QC H2V 4J5, Canada",ChIJW_AOUisayUwRPionbZYL-as,"4667 rue Jeanne-Mance  (MTL), Montreal,Canada",45.518575,-73.590541,1,H2V 4J5,OK,street_address
426,ROOFTOP,"2127 Rue Saint-Urbain, Montréal, QC H2X 2N1, Canada",ChIJ2zgt30sayUwR4jCgLj0Vysg,"2127 rue Saint-Urbain  (MTL), Montreal,Canada",45.511005,-73.56949,1,H2X 2N1,OK,street_address
427,ROOFTOP,"4673 Rue Jeanne-Mance, Montréal, QC H2V 4J5, Canada",ChIJ2dzsTSsayUwRTkNEcdaqWuA,"4673 rue Jeanne-Mance  (MTL), Montreal,Canada",45.518609,-73.590626,2,H2V 4J5,OK,street_address
428,RANGE_INTERPOLATED,"4679 Rue Jeanne-Mance, Montréal, QC H2X 2K5, Canada",EjQ0Njc5IFJ1ZSBKZWFubmUtTWFuY2UsIE1vbnRyw6lhbCwgUUMgSDJYIDJLNSwgQ2FuYWRhIhsSGQoUChIJz9-8KjQayUwR-LmEOq-ydcwQxyQ,"4679 rue Jeanne-Mance  (MTL), Montreal,Canada",45.5123016,-73.5771886,2,H2X 2K5,OK,street_address
429,ROOFTOP,"4685 Rue Jeanne-Mance, Montréal, QC H2V 4J5, Canada",ChIJd2xbTCsayUwR7k0_m7AUOLM,"4685 rue Jeanne-Mance  (MTL), Montreal,Canada",45.518682,-73.590797,1,H2V 4J5,OK,street_address
430,ROOFTOP,"4691 Rue Jeanne-Mance, Montréal, QC H2V 4J5, Canada",ChIJHU2GTCsayUwRCSyaXQ2EQqA,"4691 rue Jeanne-Mance  (MTL), Montreal,Canada",45.518733,-73.59085999999999,1,H2V 4J5,OK,street_address
431,RANGE_INTERPOLATED,"2105 Rue Saint-Urbain, Montréal, QC H2X 2N1, Canada",EjQyMTA1IFJ1ZSBTYWludC1VcmJhaW4sIE1vbnRyw6lhbCwgUUMgSDJYIDJOMSwgQ2FuYWRhIhsSGQoUChIJYy_CYUkayUwRvjrfpy-f8I4QuRA,"2105 rue Saint-Urbain  (MTL), Montreal,Canada",45.510874,-73.5691688,1,H2X 2N1,OK,street_address
432,ROOFTOP,"2101 Rue Saint-Urbain, Montréal, QC H2X 2N1, Canada",ChIJj9D9X0kayUwReTX62iH-Ooc,"2101 rue Saint-Urbain  (MTL), Montreal,Canada",45.5108194,-73.56917530000001,1,H2X 2N1,OK,street_address
433,ROOFTOP,"4697 Rue Jeanne-Mance, Montréal, QC H2V 4J5, Canada",ChIJq9ZwSysayUwRaeXXs8J9CwY,"4697 rue Jeanne-Mance  (MTL), Montreal,Canada",45.518757,-73.590953,1,H2V 4J5,OK,street_address
434,ROOFTOP,"2095 Rue Saint-Urbain, Montréal, QC H2X 2N1, Canada",ChIJmTYm4EsayUwRiRBuosKh5tE,"2095 rue Saint-Urbain  (MTL), Montreal,Canada",45.510829,-73.569028,1,H2X 2N1,OK,street_address
435,ROOFTOP,"4703 Rue Jeanne-Mance, Montréal, QC H2V 4J5, Canada",ChIJnxIbSysayUwRFu1F791Qy04,"4703 rue Jeanne-Mance  (MTL), Montreal,Canada",45.518795,-73.591043,1,H2V 4J5,OK,street_address
436,ROOFTOP,"2091 Rue Saint-Urbain, Montréal, QC H2X 2N1, Canada",ChIJUfCQX0kayUwRwjqwNDDSSYw,"2091 rue Saint-Urbain  (MTL), Montreal,Canada",45.5107744,-73.569064,1,H2X 2N1,OK,street_address
437,ROOFTOP,"2085 Rue Saint-Urbain, Montréal, QC H2X 2N1, Canada",ChIJlXVdX0kayUwRNjOhCcJVWCU,"2085 rue Saint-Urbain  (MTL), Montreal,Canada",45.51077,-73.568895,1,H2X 2N1,OK,street_address
438,ROOFTOP,"4821 Rue Jeanne-Mance, Montréal, QC H2V 4J6, Canada",ChIJpbjz09QbyUwRq88SEMPJNiQ,"4821 rue Jeanne-Mance  (MTL), Montreal,Canada",45.5193129,-73.592202,1,H2V 4J6,OK,street_address
439,ROOFTOP,"2067 Rue Saint-Urbain, Montréal, QC H2X 2N1, Canada",ChIJ960fWUkayUwRgx17JZ_5_vQ,"2067 rue Saint-Urbain  (MTL), Montreal,Canada",45.5106214,-73.5687669,1,H2X 2N1,OK,street_address
440,ROOFTOP,"2061 Rue Saint-Urbain, Montréal, QC H2X 2N1, Canada",ChIJV9moWUkayUwRmXo4CNXdsBI,"2061 rue Saint-Urbain  (MTL), Montreal,Canada",45.5105853,-73.56867380000001,1,H2X 2N1,OK,street_address
441,ROOFTOP,"4839 Rue Jeanne-Mance, Montréal, QC H2V 4J6, Canada",ChIJ2Wd21tQbyUwRtrv4p5l6b0w,"4839 rue Jeanne-Mance  (MTL), Montreal,Canada",45.519419,-73.592456,1,H2V 4J6,OK,street_address
442,ROOFTOP,"4841 Rue Jeanne-Mance, Montréal, QC H2V 4J6, Canada",ChIJ2Wd21tQbyUwR_5kgvRebJrE,"4841 rue Jeanne-Mance  (MTL), Montreal,Canada",45.519419,-73.592456,1,H2V 4J6,OK,street_address
443,ROOFTOP,"4843 Rue Jeanne-Mance, Montréal, QC H2V 4J6, Canada",ChIJDRUJ1tQbyUwRAXb4cKU3M8Q,"4843 rue Jeanne-Mance  (MTL), Montreal,Canada",45.5194341,-73.5925127,1,H2V 4J6,OK,street_address
444,ROOFTOP,"4845 Rue Jeanne-Mance, Montréal, QC H2V 4J6, Canada",ChIJTUnj1dQbyUwRQL2pug_xsNg,"4845 rue Jeanne-Mance  (MTL), Montreal,Canada",45.5194094,-73.5925441,2,H2V 4J6,OK,street_address
445,ROOFTOP,"4851 Rue Jeanne-Mance, Montréal, QC H2V 4J6, Canada",ChIJ79LuKdUbyUwRRMT6LkPU9AI,"4851 rue Jeanne-Mance  (MTL), Montreal,Canada",45.519492,-73.592618,1,H2V 4J6,OK,street_address
446,ROOFTOP,"4857 Rue Jeanne-Mance, Montréal, QC H2V 4J6, Canada",ChIJwUaiKdUbyUwRc5DNUXnSWAI,"4857 rue Jeanne-Mance  (MTL), Montreal,Canada",45.51953,-73.592703,1,H2V 4J6,OK,street_address
447,ROOFTOP,"4863 Rue Jeanne-Mance, Montréal, QC H2V 4J6, Canada",ChIJWfZpKdUbyUwRm3Gt11XDx1Q,"4863 rue Jeanne-Mance  (MTL), Montreal,Canada",45.5195246,-73.5928404,1,H2V 4J6,OK,street_address
448,ROOFTOP,"1441 Rue Saint-Urbain, Montréal, QC H2X 2M6, Canada",ChIJ1e2vjk4ayUwRxCCKPhzFhYw,"1441 rue Saint-Urbain  (MTL), Montreal,Canada",45.50933620000001,-73.5655294,1,H2X 2M6,OK,street_address
449,ROOFTOP,"4875 Rue Jeanne-Mance, Montréal, QC H2V 4J6, Canada",ChIJ7YbqLtUbyUwRfj1sP0zbftI,"4875 rue Jeanne-Mance  (MTL), Montreal,Canada",45.51957970000001,-73.59302380000001,1,H2V 4J6,OK,street_address
450,ROOFTOP,"5021 Rue Jeanne-Mance, Montréal, QC H2V 4J9, Canada",ChIJ2wAtRNUbyUwRE9kLJdda0WM,"5021 rue Jeanne-Mance  (MTL), Montreal,Canada",45.5201459,-73.59429899999999,1,H2V 4J9,OK,street_address
451,ROOFTOP,"5027 Rue Jeanne-Mance, Montréal, QC H2V 4J9, Canada",ChIJFdJTRNUbyUwR_K6DqqW6zFM,"5027 rue Jeanne-Mance  (MTL), Montreal,Canada",45.5201708,-73.594415,1,H2V 4J9,OK,street_address
452,ROOFTOP,"5033 Rue Jeanne-Mance, Montréal, QC H2V 4J9, Canada",ChIJ2W_xRNUbyUwRICVm1AEF5yQ,"5033 rue Jeanne-Mance  (MTL), Montreal,Canada",45.520215,-73.59446299999999,1,H2V 4J9,OK,street_address
453,ROOFTOP,"5039 Rue Jeanne-Mance, Montréal, QC H2V 4J9, Canada",ChIJV_W4RNUbyUwR9ldn1a1UMH4,"5039 rue Jeanne-Mance  (MTL), Montreal,Canada",45.52025400000001,-73.594548,1,H2V 4J9,OK,street_address
454,ROOFTOP,"5020 Avenue de l'Esplanade, Montréal, QC H2T 2Z1, Canada",ChIJJcd1atUbyUwRTL4m6o2B5jM,"5020 avenue de l' Esplanade  (MTL), Montreal,Canada",45.5205384,-73.5939023,1,H2T 2Z1,OK,street_address
455,ROOFTOP,"5014 Avenue de l'Esplanade, Montréal, QC H2T 2Z1, Canada",ChIJhRDSQdUbyUwR4R-evly416I,"5014 avenue de l' Esplanade  (MTL), Montreal,Canada",45.52049239999999,-73.5938676,1,H2T 2Z1,OK,street_address
456,RANGE_INTERPOLATED,"4886 Avenue de l'Esplanade, Montréal, QC H2T 2Y7, Canada",Ejk0ODg2IEF2ZW51ZSBkZSBsJ0VzcGxhbmFkZSwgTW9udHLDqWFsLCBRQyBIMlQgMlk3LCBDYW5hZGEiGxIZChQKEgljby7f1BvJTBElJN9kqjrpIhCWJg,"4886 avenue de l' Esplanade  (MTL), Montreal,Canada",45.5200204,-73.5925912,1,H2T 2Y7,OK,street_address
457,RANGE_INTERPOLATED,"4860 Avenue de l'Esplanade, Montréal, QC H2T 2Y7, Canada",Ejk0ODYwIEF2ZW51ZSBkZSBsJ0VzcGxhbmFkZSwgTW9udHLDqWFsLCBRQyBIMlQgMlk3LCBDYW5hZGEiGxIZChQKEgljby7f1BvJTBElJN9kqjrpIhD8JQ,"4860 avenue de l' Esplanade  (MTL), Montreal,Canada",45.5198591,-73.5922301,1,H2T 2Y7,OK,street_address
458,ROOFTOP,"4858 Avenue de l'Esplanade, Montréal, QC H2T 2Y7, Canada",ChIJm7722NQbyUwRrMD3Zx1ADgk,"4858 avenue de l' Esplanade  (MTL), Montreal,Canada",45.51984390000001,-73.59220669999999,1,H2T 2Y7,OK,street_address
459,RANGE_INTERPOLATED,"4856 Avenue de l'Esplanade, Montréal, QC H2T 2Y7, Canada",Ejk0ODU2IEF2ZW51ZSBkZSBsJ0VzcGxhbmFkZSwgTW9udHLDqWFsLCBRQyBIMlQgMlk3LCBDYW5hZGEiGxIZChQKEgljby7f1BvJTBElJN9kqjrpIhD4JQ,"4856 avenue de l' Esplanade  (MTL), Montreal,Canada",45.5198438,-73.592196,1,H2T 2Y7,OK,street_address
460,ROOFTOP,"4854 Avenue de l'Esplanade, Montréal, QC H2T 2Y7, Canada",ChIJwbrl2NQbyUwRy7Jap439sFs,"4854 avenue de l' Esplanade  (MTL), Montreal,Canada",45.5198718,-73.5921597,1,H2T 2Y7,OK,street_address
461,RANGE_INTERPOLATED,"4848 Avenue de l'Esplanade, Montréal, QC H2T 2Y7, Canada",Ejk0ODQ4IEF2ZW51ZSBkZSBsJ0VzcGxhbmFkZSwgTW9udHLDqWFsLCBRQyBIMlQgMlk3LCBDYW5hZGEiGxIZChQKEgljby7f1BvJTBElJN9kqjrpIhDwJQ,"4848 avenue de l' Esplanade  (MTL), Montreal,Canada",45.5198162,-73.5921341,1,H2T 2Y7,OK,street_address
462,RANGE_INTERPOLATED,"4842 Avenue de l'Esplanade, Montréal, QC H2T 2Y7, Canada",Ejk0ODQyIEF2ZW51ZSBkZSBsJ0VzcGxhbmFkZSwgTW9udHLDqWFsLCBRQyBIMlQgMlk3LCBDYW5hZGEiGxIZChQKEgljby7f1BvJTBElJN9kqjrpIhDqJQ,"4842 avenue de l' Esplanade  (MTL), Montreal,Canada",45.5197836,-73.5920612,1,H2T 2Y7,OK,street_address
463,RANGE_INTERPOLATED,"4836 Avenue de l'Esplanade, Montréal, QC H2T 2Y7, Canada",Ejk0ODM2IEF2ZW51ZSBkZSBsJ0VzcGxhbmFkZSwgTW9udHLDqWFsLCBRQyBIMlQgMlk3LCBDYW5hZGEiGxIZChQKEgljby7f1BvJTBElJN9kqjrpIhDkJQ,"4836 avenue de l' Esplanade  (MTL), Montreal,Canada",45.5197497,-73.59198529999999,1,H2T 2Y7,OK,street_address
464,RANGE_INTERPOLATED,"4830 Avenue de l'Esplanade, Montréal, QC H2T 2Y7, Canada",Ejk0ODMwIEF2ZW51ZSBkZSBsJ0VzcGxhbmFkZSwgTW9udHLDqWFsLCBRQyBIMlQgMlk3LCBDYW5hZGEiGxIZChQKEgljby7f1BvJTBElJN9kqjrpIhDeJQ,"4830 avenue de l' Esplanade  (MTL), Montreal,Canada",45.51971289999999,-73.5919029,1,H2T 2Y7,OK,street_address
465,ROOFTOP,"4824 Avenue de l'Esplanade, Montréal, QC H2T 2Y7, Canada",ChIJWV5b2tQbyUwRRCzcy3FijGc,"4824 avenue de l' Esplanade  (MTL), Montreal,Canada",45.5197182,-73.591835,1,H2T 2Y7,OK,street_address
466,ROOFTOP,"4662 Avenue de l'Esplanade, Montréal, QC H2T 2Y5, Canada",ChIJxfSjttQbyUwR3iwjFQxFrn0,"4662 avenue de l' Esplanade  (MTL), Montreal,Canada",45.5191797,-73.5907197,1,H2T 2Y5,OK,street_address
467,ROOFTOP,"4660 Avenue de l'Esplanade, Montréal, QC H2T 2Y5, Canada",ChIJcyKwttQbyUwRp493wDzmpAw,"4660 avenue de l' Esplanade  (MTL), Montreal,Canada",45.5191897,-73.5906799,1,H2T 2Y5,OK,street_address
468,ROOFTOP,"4658 Avenue de l'Esplanade, Montréal, QC H2T 2Y5, Canada",ChIJvw6xttQbyUwRYJB85YXXC7A,"4658 avenue de l' Esplanade  (MTL), Montreal,Canada",45.5191969,-73.5906646,1,H2T 2Y5,OK,street_address
469,ROOFTOP,"4652 Avenue de l'Esplanade, Montréal, QC H2T 2Y5, Canada",ChIJZwRWsdQbyUwRDS_xokB3ZBc,"4652 avenue de l' Esplanade  (MTL), Montreal,Canada",45.5191448,-73.5906322,1,H2T 2Y5,OK,street_address
470,ROOFTOP,"4646 Avenue de l'Esplanade, Montréal, QC H2T 2Y5, Canada",ChIJBy_Us9QbyUwRC5Eu8G6jpL0,"4646 avenue de l' Esplanade  (MTL), Montreal,Canada",45.5191118,-73.5904946,1,H2T 2Y5,OK,street_address
471,RANGE_INTERPOLATED,"4640 Avenue de l'Esplanade, Montréal, QC H2T 2Y5, Canada",Ejk0NjQwIEF2ZW51ZSBkZSBsJ0VzcGxhbmFkZSwgTW9udHLDqWFsLCBRQyBIMlQgMlk1LCBDYW5hZGEiGxIZChQKEgk3bHqq1BvJTBGk1BdfSszmARCgJA,"4640 avenue de l' Esplanade  (MTL), Montreal,Canada",45.5190524,-73.590429,1,H2T 2Y5,OK,street_address
472,ROOFTOP,"4634 Avenue de l'Esplanade, Montréal, QC H2T 2Y5, Canada",ChIJoTJ7stQbyUwRQyoMU82KF5w,"4634 avenue de l' Esplanade  (MTL), Montreal,Canada",45.5189926,-73.590412,1,H2T 2Y5,OK,premise
473,ROOFTOP,"4628 Avenue de l'Esplanade, Montréal, QC H2T 2Y5, Canada",ChIJnd_qrdQbyUwRkqM2_7vMiuc,"4628 avenue de l' Esplanade  (MTL), Montreal,Canada",45.5190124,-73.590228,1,H2T 2Y5,OK,street_address
474,ROOFTOP,"4622 Avenue de l'Esplanade, Montréal, QC H2T 2Y5, Canada",ChIJsei7rdQbyUwRo0N5vvCszhU,"4622 avenue de l' Esplanade  (MTL), Montreal,Canada",45.5189828,-73.5902014,1,H2T 2Y5,OK,street_address
475,ROOFTOP,"4616 Avenue de l'Esplanade, Montréal, QC H2T 2Y5, Canada",ChIJI0pfrNQbyUwRIrCpV7QggAM,"4616 avenue de l' Esplanade  (MTL), Montreal,Canada",45.5189163,-73.5900872,1,H2T 2Y5,OK,street_address
476,ROOFTOP,"4610 Avenue de l'Esplanade, Montréal, QC H2T 2Y5, Canada",ChIJW9eLrNQbyUwRPwZ8yB8mFik,"4610 avenue de l' Esplanade  (MTL), Montreal,Canada",45.5188948,-73.5900504,1,H2T 2Y5,OK,street_address
477,ROOFTOP,"4604 Avenue de l'Esplanade, Montréal, QC H2T 2Y5, Canada",ChIJ-5Buq9QbyUwRoMgHQQFKBHc,"4604 avenue de l' Esplanade  (MTL), Montreal,Canada",45.5188383,-73.5899292,1,H2T 2Y5,OK,street_address
478,ROOFTOP,"4598 Avenue de l'Esplanade, Montréal, QC H2T 2Y5, Canada",ChIJcdkjq9QbyUwRrq8iacgvFD8,"4598 avenue de l' Esplanade  (MTL), Montreal,Canada",45.51892,-73.5897284,1,H2T 2Y5,OK,street_address
479,ROOFTOP,"4592 Avenue de l'Esplanade, Montréal, QC H2T 2Y5, Canada",ChIJ1c3rqtQbyUwRbscjyyGny3k,"4592 avenue de l' Esplanade  (MTL), Montreal,Canada",45.5187953,-73.5897371,1,H2T 2Y5,OK,street_address
480,RANGE_INTERPOLATED,"4586 Avenue de l'Esplanade, Montréal, QC H2T 2Y5, Canada",Ejk0NTg2IEF2ZW51ZSBkZSBsJ0VzcGxhbmFkZSwgTW9udHLDqWFsLCBRQyBIMlQgMlk1LCBDYW5hZGEiGxIZChQKEgk3bHqq1BvJTBGk1BdfSszmARDqIw,"4586 avenue de l' Esplanade  (MTL), Montreal,Canada",45.5187286,-73.5897,1,H2T 2Y5,OK,street_address
